$PVER,1.0,V1,0.156,2025-07-19*7F
$PSFC,624*1A
$PST,1273210,FLIGHT*7B
$PIMU,28,0.17836,0.20708,-9.34036,-7.62822,-1.95354,-6.48276*27
$PIM2,28,-0.9846,-0.0858, 0.0155,-0.1521*4D
$PENV,29,979.85730,924.547,-1.00*33
$PIMU,100,0.23103,-0.09935,-9.15123,-5.09526,0.49550,-6.40647*13
$PIM2,100,-0.9860,-0.0808, 0.0159,-0.1458*74
$PENV,101,979.79419,926.318,-1.00*0D
$PIMU,201,0.28848,0.02873,-8.42105,-7.17045,1.08296,-3.91166*37
$PIM2,201,-0.9872,-0.0742, 0.0152,-0.1413*70
$PENV,202,979.72455,928.273,-1.00*0C
$PIMU,300,0.39861,-0.00718,-8.48688,-4.89689,-0.43529,-1.00486*3A
$PIM2,300,-0.9881,-0.0680, 0.0143,-0.1381*7F
$PENV,302,979.66449,929.959,-1.00*07
$PIMU,400,0.21786,0.32439,-9.33318,-2.57756,-1.18297,-2.12638*13
$PIM2,400,-0.9888,-0.0642, 0.0140,-0.1347*76
$PENV,401,979.57355,932.512,-1.00*02
$PIMU,500,0.44649,0.27531,-9.58575,-0.57866,-1.48052,-3.41575*13
$PIM2,500,-0.9893,-0.0626, 0.0142,-0.1323*7F
$PENV,502,979.54236,933.387,-1.00*0C
$PIMU,600,0.71342,0.07781,-9.44450,-0.46422,0.44972,-1.44736*3D
$PIM2,600,-0.9894,-0.0621, 0.0137,-0.1312*7C
$PENV,602,979.43567,936.382,-1.00*0A
$PIMU,700,0.42614,-0.50155,-9.93887,2.26711,-0.26744,0.65835*3D
$PIM2,700,-0.9894,-0.0634, 0.0143,-0.1309*70
$PENV,701,979.40869,937.140,-1.00*05
$PIMU,800,0.54464,-0.55063,-9.79882,2.17555,-0.01567,0.78805*39
$PIM2,800,-0.9892,-0.0650, 0.0139,-0.1318*76
$PENV,801,979.38251,937.876,-1.00*08
$GNRMC,143531.00,A,3326.56121,N,09622.60074,W,97.320,161.00,190725,,,A,V*27
$GNVTG,161.00,T,,M,97.320,N,180.236,K,A*14
$GNGGA,143531.00,3326.56121,N,09622.60074,W,1,12,0.61,327.2,M,-25.6,M,,*72
$PTH,824*5E
$PFIX,824,2025-07-19T14:35:31.000Z,33.4426868,-96.3766790,327.20,1,0.6,0.9,50.07,161.0*28
$GNGSA,A,3,06,13,21,11,25,29,,,,,,,1.26,0.61,1.10,1*08
$GNGSA,A,3,72,65,88,71,86,87,79,,,,,,1.26,0.61,1.10,2*0F
$GNGSA,A,3,27,05,08,34,03,13,,,,,,,1.26,0.61,1.10,3*0F
$GNGSA,A,3,33,30,,,,,,,,,,,1.26,0.61,1.10,4*05
$GNGSA,A,3,,,,,,,,,,,,,1.26,0.61,1.10,5*07
$GQGSV,1,1,00,0*64
$GNGLL,3326.56121,N,09622.60074,W,143531.00,A,A*6B
$PTH,956*5A
$PFIX,956,2025-07-19T14:35:31.000Z,33.4426868,-96.3766790,327.20,1,0.6,0.9,50.07,161.0*2C
$PIMU,974,0.31003,-0.94804,-9.11771,2.27474,-2.12139,-1.74491*1B
$PIM2,974,-0.9891,-0.0667, 0.0110,-0.1319*79
$PENV,975,979.29010,940.470,-1.00*07
$PIMU,1071,0.44290,-0.45726,-9.48280,-4.27128,-0.94646,1.40603*2F
$PIM2,1071,-0.9893,-0.0643, 0.0094,-0.1314*40
$PENV,1072,979.17517,943.697,-1.00*3F
$PIMU,1171,0.22265,-0.64041,-10.15673,-2.44023,-1.62548,-2.70621*38
$PIM2,1171,-0.9897,-0.0599, 0.0083,-0.1306*44
$PENV,1172,979.13373,944.861,-1.00*3E
$PIMU,1271,0.37108,-0.15801,-10.37099,-5.05711,0.32002,-2.32474*1D
$PIM2,1271,-0.9903,-0.0544, 0.0074,-0.1287*4B
$PENV,1272,979.04089,947.469,-1.00*3A
$PIMU,1371,0.64879,-0.41297,-10.23573,-1.53996,-1.71703,1.30685*1E
$PIM2,1371,-0.9906,-0.0497, 0.0065,-0.1279*41
$PENV,1372,978.99695,948.703,-1.00*35
$PIMU,1471,0.16160,-0.36749,-9.87064,3.67855,1.07533,-2.02720*04
$PIM2,1471,-0.9907,-0.0497, 0.0053,-0.1272*49
$PENV,1473,978.92480,950.729,-1.00*3F
$PIMU,1572,0.39382,-0.59492,-10.23453,0.13088,1.57124,0.51339*15
$PIM2,1572,-0.9908,-0.0503, 0.0021,-0.1269*47
$PENV,1574,978.89734,951.500,-1.00*37
$PIMU,1671,0.69427,-0.67033,-10.10526,0.68019,3.08186,0.49050*18
$PIM2,1671,-0.9910,-0.0501,-0.0002,-0.1253*49
$PENV,1673,978.84644,952.930,-1.00*34
$PIMU,1771,0.43452,-0.81158,-9.82874,0.17665,2.42573,-1.22611*08
$PIM2,1771,-0.9913,-0.0499,-0.0018,-0.1231*44
$PENV,1773,978.80621,954.060,-1.00*38
$GNRMC,143532.00,A,3326.53584,N,09622.58983,W,97.964,159.36,190725,,,A,V*24
$GNVTG,159.36,T,,M,97.964,N,181.429,K,A*19
$GNGGA,143532.00,3326.53584,N,09622.58983,W,1,12,0.60,332.5,M,-25.6,M,,*77
$PTH,1797*68
$PFIX,1797,2025-07-19T14:35:32.000Z,33.4422640,-96.3764972,332.50,1,0.6,0.9,50.40,159.4*12
$GNGSA,A,3,06,13,12,21,11,25,29,,,,,,1.30,0.60,1.16,1*0B
$GNGSA,A,3,72,65,88,71,86,87,79,,,,,,1.30,0.60,1.16,2*0F
$GNGSA,A,3,27,05,08,34,03,13,,,,,,,1.30,0.60,1.16,3*0F
$GNGSA,A,3,33,30,,,,,,,,,,,1.30,0.60,1.16,4*05
$GNGSA,A,3,,,,,,,,,,,,,1.30,0.60,1.16,5*07
$GQGSV,1,1,00,0*64
$GNGLL,3326.53584,N,09622.58983,W,143532.00,A,A*6C
$PTH,1931*6A
$PFIX,1931,2025-07-19T14:35:32.000Z,33.4422640,-96.3764972,332.50,1,0.6,0.9,50.40,159.4*10
$PIMU,1950,0.30165,-0.73377,-9.56779,-0.02934,-1.75517,-1.73728*0C
$PIM2,1950,-0.9916,-0.0495,-0.0032,-0.1204*4E
$PENV,1952,978.62097,959.265,-1.00*38
$PIMU,2047,0.32679,-0.78166,-9.69228,1.22188,-3.18950,-1.11930*28
$PIM2,2047,-0.9917,-0.0500,-0.0039,-0.1191*4A
$PENV,2049,978.55042,961.247,-1.00*3F
$PIMU,2147,0.56260,-0.95283,-10.31593,-0.32689,0.79304,-3.14872*17
$PIM2,2147,-0.9921,-0.0502,-0.0056,-0.1159*41
$PENV,2148,978.46588,963.622,-1.00*3B
$PIMU,2247,-0.11491,-0.79243,-9.34874,0.97774,0.11403,-5.32310*27
$PIM2,2247,-0.9924,-0.0496,-0.0081,-0.1134*4A
$PENV,2248,978.38702,965.837,-1.00*3D
$PIMU,2347,0.34953,-0.83313,-9.26854,1.06166,1.49495,-6.62009*0D
$PIM2,2347,-0.9928,-0.0500,-0.0098,-0.1096*48
$PENV,2348,978.28101,968.816,-1.00*36
$PIMU,2448,0.35552,-0.37946,-8.58504,-1.21190,1.90693,-1.86698*2E
$PIM2,2448,-0.9932,-0.0489,-0.0122,-0.1062*40
$PENV,2450,978.20776,970.876,-1.00*39
$PIMU,2547,0.31960,-0.31841,-8.95731,-1.88328,0.98378,-6.27677*2A
$PIM2,2547,-0.9936,-0.0469,-0.0141,-0.1027*40
$PENV,2549,978.11633,973.444,-1.00*3C
$PIMU,2650,0.86545,0.16878,-8.85557,-3.66856,4.33308,-5.93345*03
$PIM2,2650,-0.9942,-0.0439,-0.0150,-0.0983*45
$PENV,2652,978.00494,976.577,-1.00*3E
$PIMU,2750,0.73856,0.14604,-9.29128,-1.19664,-3.99059,-3.65226*28
$PIM2,2750,-0.9947,-0.0419,-0.0141,-0.0939*42
$PENV,2751,977.92590,978.798,-1.00*30
$GNRMC,143533.00,A,3326.51035,N,09622.57804,W,99.195,158.06,190725,,,A,V*23
$GNVTG,158.06,T,,M,99.195,N,183.710,K,A*18
$GNGGA,143533.00,3326.51035,N,09622.57804,W,1,12,0.60,338.0,M,-25.6,M,,*75
$PTH,2774*66
$PFIX,2774,2025-07-19T14:35:33.000Z,33.4418392,-96.3763007,338.00,1,0.6,0.9,51.03,158.1*1F
$GNGSA,A,3,06,13,12,21,11,25,29,,,,,,1.35,0.60,1.21,1*0A
$GNGSA,A,3,72,65,88,71,86,87,79,,,,,,1.35,0.60,1.21,2*0E
$GNGSA,A,3,27,05,08,34,03,13,,,,,,,1.35,0.60,1.21,3*0E
$GNGSA,A,3,33,30,,,,,,,,,,,1.35,0.60,1.21,4*04
$GNGSA,A,3,,,,,,,,,,,,,1.35,0.60,1.21,5*06
$GQGSV,1,1,00,0*64
$GNGLL,3326.51035,N,09622.57804,W,143533.00,A,A*61
$PTH,2908*63
$PFIX,2908,2025-07-19T14:35:33.000Z,33.4418392,-96.3763007,338.00,1,0.6,0.9,51.03,158.1*1A
$PIMU,2927,0.46325,0.38903,-9.06983,1.82460,0.03010,-3.33945*29
$PIM2,2927,-0.9952,-0.0420,-0.0133,-0.0884*40
$PENV,2928,977.80865,982.095,-1.00*3B
$PIMU,3023,0.74335,0.27891,-9.28649,1.82460,-0.42766,-3.90403*0C
$PIM2,3023,-0.9953,-0.0445,-0.0129,-0.0865*4A
$PENV,3024,977.75800,983.519,-1.00*36
$PIMU,3126,0.64160,0.20589,-9.93169,1.54994,-3.75408,-0.73020*07
$PIM2,3126,-0.9953,-0.0466,-0.0124,-0.0854*40
$PENV,3128,977.66168,986.227,-1.00*31
$PIMU,3225,0.72659,0.33517,-10.46436,3.30471,-1.23638,-2.45444*30
$PIM2,3225,-0.9953,-0.0487,-0.0103,-0.0842*4D
$PENV,3226,977.62366,987.296,-1.00*3F
$PIMU,3325,1.09168,0.37706,-9.36430,0.95485,-2.80803,0.42184*2C
$PIM2,3325,-0.9953,-0.0505,-0.0083,-0.0834*4F
$PENV,3326,977.61920,987.422,-1.00*3C
$PIMU,3425,0.64879,0.32918,-10.34705,-0.05223,-5.22655,-2.17216*18
$PIM2,3425,-0.9954,-0.0512,-0.0067,-0.0825*43
$PENV,3427,977.59180,988.192,-1.00*32
$PIMU,3525,1.11203,0.18913,-10.03224,-0.04460,-0.61840,-2.08823*16
$PIM2,3525,-0.9955,-0.0512,-0.0047,-0.0816*41
$PENV,3527,977.55957,989.098,-1.00*37
$PIMU,3626,0.84270,0.42255,-9.88381,0.13088,-1.46526,2.23763*23
$PIM2,3626,-0.9954,-0.0517,-0.0032,-0.0817*46
$PENV,3627,977.51617,990.318,-1.00*38
$PIMU,3726,0.77567,0.21905,-10.51224,1.38210,-2.28923,1.34499*1C
$PIM2,3726,-0.9953,-0.0527,-0.0009,-0.0822*4D
$PENV,3727,977.51941,990.227,-1.00*38
$GNRMC,143534.00,A,3326.48480,N,09622.56506,W,99.930,155.70,190725,,,A,V*23
$GNVTG,155.70,T,,M,99.930,N,185.070,K,A*14
$GNGGA,143534.00,3326.48480,N,09622.56506,W,1,12,0.52,343.8,M,-25.6,M,,*7B
$PTH,3747*67
$PFIX,3747,2025-07-19T14:35:34.000Z,33.4414133,-96.3760843,343.80,1,0.5,0.8,51.41,155.7*1C
$GNGSA,A,3,06,15,13,12,21,20,11,25,29,,,,1.00,0.52,0.86,1*07
$GNGSA,A,3,72,65,88,71,86,87,79,,,,,,1.00,0.52,0.86,2*05
$GNGSA,A,3,27,05,08,34,03,13,21,,,,,,1.00,0.52,0.86,3*06
$GNGSA,A,3,33,30,28,,,,,,,,,,1.00,0.52,0.86,4*05
$GNGSA,A,3,,,,,,,,,,,,,1.00,0.52,0.86,5*0D
$GQGSV,1,1,00,0*64
$GNGLL,3326.48480,N,09622.56506,W,143534.00,A,A*6A
$PTH,3889*6A
$PFIX,3889,2025-07-19T14:35:34.000Z,33.4414133,-96.3760843,343.80,1,0.5,0.8,51.41,155.7*11
$PIMU,3907,0.85108,0.04788,-10.54336,1.06929,-0.35900,3.24471*1C
$PIM2,3907,-0.9950,-0.0547, 0.0003,-0.0855*42
$PENV,3908,977.43842,992.505,-1.00*3F
$PIMU,4005,0.95762,0.22863,-10.70137,0.39791,-2.81566,3.03872*1B
$PIM2,4005,-0.9948,-0.0555, 0.0002,-0.0868*4B
$PENV,4007,977.33289,995.472,-1.00*32
$PIMU,4104,0.55302,0.53507,-11.14188,1.01589,1.25081,0.24636*3E
$PIM2,4104,-0.9947,-0.0560, 0.0016,-0.0873*4D
$PENV,4106,977.29065,996.661,-1.00*3A
$PIMU,4204,1.08690,0.03471,-11.16701,2.07637,3.18867,6.09811*37
$PIM2,4204,-0.9945,-0.0574, 0.0011,-0.0890*43
$PENV,4206,977.25922,997.545,-1.00*3B
$PIMU,4304,0.64639,-0.38185,-11.28672,5.70034,0.84645,1.83328*13
$PIM2,4304,-0.9941,-0.0618, 0.0007,-0.0902*42
$PENV,4305,977.20361,999.108,-1.00*32
$PIMU,4405,1.14675,-0.38424,-11.82777,4.04476,-0.30559,0.69650*32
$PIM2,4405,-0.9938,-0.0665, 0.0010,-0.0908*4C
$PENV,4406,977.08417,1002.469,-1.00*02
$PIMU,4504,1.19223,-0.47043,-11.24243,2.97664,-2.45708,0.80331*35
$PIM2,4504,-0.9935,-0.0692, 0.0019,-0.0922*48
$PENV,4505,977.07587,1002.701,-1.00*0A
$PIMU,4604,0.84629,-0.52549,-11.32143,2.41970,-0.16826,0.89486*36
$PIM2,4604,-0.9932,-0.0720, 0.0043,-0.0927*4E
$PENV,4606,977.01520,1004.409,-1.00*0C
$PIMU,4704,0.45247,-0.67273,-11.09878,0.88619,1.19740,-0.83701*37
$PIM2,4704,-0.9930,-0.0736, 0.0049,-0.0931*47
$PENV,4705,976.94592,1006.357,-1.00*04
$PIMU,4804,1.04979,-0.56978,-10.60681,-1.03642,0.25136,0.50576*37
$PIM2,4804,-0.9931,-0.0730, 0.0040,-0.0927*41
$PENV,4806,976.87128,1008.457,-1.00*06
$GNRMC,143535.00,A,3326.45980,N,09622.55072,W,99.895,153.08,190725,,,A,V*20
$GNVTG,153.08,T,,M,99.895,N,185.005,K,A*11
$GNGGA,143535.00,3326.45980,N,09622.55072,W,1,12,0.52,349.6,M,-25.6,M,,*7B
$PTH,4830*6F
$PFIX,4830,2025-07-19T14:35:35.000Z,33.4409967,-96.3758453,349.60,1,0.5,0.8,51.39,153.1*1D
$GNGSA,A,3,06,15,13,12,21,20,11,25,29,,,,1.00,0.52,0.86,1*07
$GNGSA,A,3,72,65,88,71,86,87,79,,,,,,1.00,0.52,0.86,2*05
$GNGSA,A,3,27,05,08,34,03,13,21,,,,,,1.00,0.52,0.86,3*06
$GNGSA,A,3,33,30,28,,,,,,,,,,1.00,0.52,0.86,4*05
$GNGSA,A,3,,,,,,,,,,,,,1.00,0.52,0.86,5*0D
$GQGSV,1,1,00,0*64
$GNGLL,3326.45980,N,09622.55072,W,143535.00,A,A*6E
$PTH,4964*6F
$PFIX,4964,2025-07-19T14:35:35.000Z,33.4409967,-96.3758453,349.60,1,0.5,0.8,51.39,153.1*1D
$PIMU,4983,0.48719,-0.23462,-10.18186,-0.70836,-2.15190,-2.58414*39
$PIM2,4983,-0.9935,-0.0700, 0.0038,-0.0907*45
$PENV,4985,976.74927,1011.891,-1.00*09
$PIMU,5081,0.74335,-0.70864,-10.32910,0.93196,-1.09142,-2.99613*1F
$PIM2,5081,-0.9936,-0.0701, 0.0044,-0.0894*4D
$PENV,5084,976.66565,1014.244,-1.00*0E
$PIMU,5188,0.56380,-0.50993,-10.12321,-0.41081,0.40394,1.14663*39
$PIM2,5188,-0.9937,-0.0697, 0.0045,-0.0893*4C
$PENV,5189,976.50824,1018.673,-1.00*03
$PIMU,5282,0.73497,-0.67033,-9.99154,2.04586,-3.26579,-1.36344*20
$PIM2,5282,-0.9937,-0.0705, 0.0052,-0.0881*4A
$PENV,5283,976.45856,1020.071,-1.00*04
$PIMU,5382,0.50035,-0.76370,-10.12920,1.16848,-3.45653,-1.47025*1B
$PIM2,5382,-0.9938,-0.0720, 0.0068,-0.0854*42
$PENV,5384,976.40173,1021.672,-1.00*0D
$PIMU,5481,0.85826,-0.98275,-10.22017,1.22951,0.91511,-4.72037*3B
$PIM2,5481,-0.9940,-0.0730, 0.0071,-0.0822*41
$PENV,5483,976.29669,1024.628,-1.00*04
$PIMU,5585,0.59971,-0.70983,-10.11723,0.40554,-4.00585,-3.39286*18
$PIM2,5585,-0.9942,-0.0743, 0.0079,-0.0787*4A
$PENV,5586,976.17975,1027.921,-1.00*0A
$PIMU,5683,0.82594,-0.68470,-10.23094,-3.05821,1.41102,-3.99558*16
$PIM2,5683,-0.9945,-0.0729, 0.0083,-0.0761*49
$PENV,5684,976.10962,1029.895,-1.00*0A
$PIMU,5783,0.72540,-0.68350,-10.09927,-3.24894,-0.83965,-4.63645*36
$PIM2,5783,-0.9950,-0.0701, 0.0090,-0.0729*48
$PENV,5784,976.02020,1032.412,-1.00*0E
$GNRMC,143536.00,A,3326.43514,N,09622.53511,W,101.078,151.13,190725,,,A,V*11
$GNVTG,151.13,T,,M,101.078,N,187.197,K,A*2A
$GNGGA,143536.00,3326.43514,N,09622.53511,W,1,12,0.52,356.2,M,-25.6,M,,*73
$PTH,5808*65
$PFIX,5808,2025-07-19T14:35:36.000Z,33.4405857,-96.3755852,356.20,1,0.5,0.8,52.00,151.1*1B
$GNGSA,A,3,06,15,13,12,21,20,11,25,29,,,,1.00,0.52,0.86,1*07
$GNGSA,A,3,72,65,88,71,86,87,79,,,,,,1.00,0.52,0.86,2*05
$GNGSA,A,3,27,05,08,34,03,13,21,,,,,,1.00,0.52,0.86,3*06
$GNGSA,A,3,33,30,28,,,,,,,,,,1.00,0.52,0.86,4*05
$GNGSA,A,3,,,,,,,,,,,,,1.00,0.52,0.86,5*0D
$GQGSV,1,1,00,0*64
$GNGLL,3326.43514,N,09622.53511,W,143536.00,A,A*6C
$PTH,5936*69
$PFIX,5936,2025-07-19T14:35:36.000Z,33.4405857,-96.3755852,356.20,1,0.5,0.8,52.00,151.1*17
$PIMU,5956,1.01747,0.02993,-9.59892,-2.06639,-3.15898,-0.61576*24
$PIM2,5956,-0.9956,-0.0666, 0.0088,-0.0670*4C
$PENV,5958,975.95203,1034.333,-1.00*0D
$PIMU,6053,0.79961,-0.17477,-9.47802,-0.38029,-2.71648,-2.86643*01
$PIM2,6053,-0.9957,-0.0660, 0.0111,-0.0652*45
$PENV,6054,975.90454,1035.669,-1.00*01
$PIMU,6153,0.58056,0.06225,-9.85987,0.82515,-2.69359,2.86324*23
$PIM2,6153,-0.9957,-0.0663, 0.0127,-0.0651*41
$PENV,6154,975.80090,1038.588,-1.00*0C
$PIMU,6254,0.93607,-0.17477,-9.83233,3.67855,1.64754,-1.20322*03
$PIM2,6254,-0.9956,-0.0688, 0.0134,-0.0643*40
$PENV,6256,975.75513,1039.876,-1.00*04
$PIMU,6354,0.90615,-0.05626,-9.53068,3.49544,-1.03801,0.42947*05
$PIM2,6354,-0.9954,-0.0720, 0.0142,-0.0636*43
$PENV,6356,975.70245,1041.360,-1.00*07
$PIMU,6456,0.65357,-0.12808,-10.13279,2.08400,-3.43364,-0.50132*1C
$PIM2,6456,-0.9953,-0.0741, 0.0151,-0.0628*4B
$PENV,6457,975.57941,1044.826,-1.00*07
$PIMU,6556,0.71223,-0.28729,-10.62117,1.92379,-3.25054,-1.18796*1E
$PIM2,6556,-0.9952,-0.0761, 0.0164,-0.0615*41
$PENV,6557,975.52094,1046.473,-1.00*0C
$PIMU,6655,0.47402,-0.14963,-10.23693,2.64858,-2.37316,-0.87516*17
$PIM2,6655,-0.9951,-0.0786, 0.0171,-0.0596*47
$PENV,6657,975.47461,1047.777,-1.00*03
$PIMU,6755,0.40818,-0.04070,-10.84621,0.33687,-1.27452,-2.59177*13
$PIM2,6755,-0.9951,-0.0798, 0.0176,-0.0575*43
$PENV,6756,975.42090,1049.291,-1.00*0F
$GNRMC,143537.00,A,3326.41093,N,09622.51823,W,100.675,148.68,190725,,,A,V*18
$GNVTG,148.68,T,,M,100.675,N,186.450,K,A*2B
$GNGGA,143537.00,3326.41093,N,09622.51823,W,1,12,0.52,363.5,M,-25.6,M,,*75
$PTH,6781*68
$PFIX,6781,2025-07-19T14:35:37.000Z,33.4401822,-96.3753038,363.50,1,0.5,0.8,51.79,148.7*11
$GNGSA,A,3,06,15,13,12,21,20,11,25,29,05,,,0.95,0.52,0.80,1*09
$GNGSA,A,3,72,65,88,71,86,87,79,,,,,,0.95,0.52,0.80,2*0E
$GNGSA,A,3,27,05,08,34,03,13,21,,,,,,0.95,0.52,0.80,3*0D
$GNGSA,A,3,33,30,28,,,,,,,,,,0.95,0.52,0.80,4*0E
$GNGSA,A,3,,,,,,,,,,,,,0.95,0.52,0.80,5*06
$GQGSV,1,1,00,0*64
$GNGLL,3326.41093,N,09622.51823,W,143537.00,A,A*6B
$PTH,6911*6F
$PFIX,6911,2025-07-19T14:35:37.000Z,33.4401822,-96.3753038,363.50,1,0.5,0.8,51.79,148.7*16
$PIMU,6932,1.13956,-0.26454,-11.38128,-0.21245,0.68623,-3.21738*1E
$PIM2,6932,-0.9955,-0.0782, 0.0184,-0.0532*4D
$PENV,6934,975.34943,1051.303,-1.00*00
$PIMU,7027,0.86305,-0.31482,-10.45838,3.24367,-1.88487,-3.36234*16
$PIM2,7027,-0.9954,-0.0800, 0.0200,-0.0512*48
$PENV,7029,975.27148,1053.500,-1.00*02
$PIMU,7127,0.63682,-0.24419,-9.94007,4.54830,-1.77806,0.87197*02
$PIM2,7127,-0.9951,-0.0835, 0.0214,-0.0506*4A
$PENV,7128,975.19849,1055.556,-1.00*02
$PIMU,7228,0.27771,-0.64519,-10.26326,4.60170,-1.60259,-2.12638*1A
$PIM2,7228,-0.9948,-0.0875, 0.0221,-0.0492*40
$PENV,7229,975.11194,1057.995,-1.00*00
$PIMU,7329,0.63801,-0.54345,-9.97119,1.51943,-0.43529,-3.98032*22
$PIM2,7329,-0.9947,-0.0902, 0.0218,-0.0466*4F
$PENV,7331,974.93939,1062.857,-1.00*05
$PIMU,7429,0.55901,-0.38065,-9.53428,-0.72361,1.59413,-3.72855*20
$PIM2,7429,-0.9948,-0.0908, 0.0215,-0.0436*45
$PENV,7430,974.85852,1065.137,-1.00*00
$PIMU,7529,0.41417,-0.17836,-10.16152,-0.70836,1.25081,-5.51383*14
$PIM2,7529,-0.9952,-0.0890, 0.0197,-0.0395*48
$PENV,7530,974.76184,1067.861,-1.00*07
$PIMU,7629,0.50155,-0.36389,-9.88500,1.29055,0.06825,-5.71982*06
$PIM2,7629,-0.9957,-0.0854, 0.0160,-0.0358*4F
$PENV,7631,974.72430,1068.919,-1.00*0A
$PIMU,7729,0.96121,-0.18913,-10.02505,1.84749,-1.12194,-1.48551*1F
$PIM2,7729,-0.9961,-0.0832, 0.0127,-0.0320*47
$PENV,7730,974.61371,1072.036,-1.00*05
$GNRMC,143538.00,A,3326.38734,N,09622.50019,W,100.976,146.25,190725,,,A,V*18
$GNVTG,146.25,T,,M,100.976,N,187.008,K,A*28
$GNGGA,143538.00,3326.38734,N,09622.50019,W,1,12,0.56,370.6,M,-25.6,M,,*7B
$PTH,7759*6C
$PFIX,7759,2025-07-19T14:35:38.000Z,33.4397890,-96.3750032,370.60,1,0.6,0.8,51.95,146.2*19
$GNGSA,A,3,06,15,13,12,21,20,11,25,29,05,,,1.03,0.56,0.86,1*05
$GNGSA,A,3,72,65,88,71,86,87,79,,,,,,1.03,0.56,0.86,2*02
$GNGSA,A,3,27,05,08,34,03,13,21,,,,,,1.03,0.56,0.86,3*01
$GNGSA,A,3,33,30,28,,,,,,,,,,1.03,0.56,0.86,4*02
$GNGSA,A,3,,,,,,,,,,,,,1.03,0.56,0.86,5*0A
$GQGSV,1,1,00,0*64
$GNGLL,3326.38734,N,09622.50019,W,143538.00,A,A*60
$PTH,7899*6F
$PFIX,7899,2025-07-19T14:35:38.000Z,33.4397890,-96.3750032,370.60,1,0.6,0.8,51.95,146.2*1A
$PIMU,7915,1.28440,-0.28609,-10.03822,1.43550,3.17341,-3.96506*34
$PIM2,7915,-0.9965,-0.0801, 0.0072,-0.0265*43
$PENV,7917,974.46100,1076.341,-1.00*08
$PIMU,8013,0.90615,-0.25257,-10.14117,1.70253,-2.64781,-4.11002*12
$PIM2,8013,-0.9967,-0.0790, 0.0052,-0.0227*42
$PENV,8015,974.37805,1078.679,-1.00*06
$PIMU,8115,1.07612,-0.13287,-10.43803,0.29872,-0.54210,-6.63535*15
$PIM2,8115,-0.9971,-0.0758, 0.0029,-0.0193*46
$PENV,8116,974.32593,1080.149,-1.00*00
$PIMU,8213,1.16949,-0.06344,-9.20150,-2.00535,0.39631,-3.30131*21
$PIM2,8213,-0.9974,-0.0713, 0.0022,-0.0155*48
$PENV,8215,974.17694,1084.351,-1.00*0C
$PIMU,8313,1.00430,0.04549,-10.11723,-3.24894,-0.72521,-4.07188*18
$PIM2,8313,-0.9980,-0.0648, 0.0004,-0.0109*40
$PENV,8315,974.14001,1085.392,-1.00*0A
$PIMU,8414,0.73976,0.50873,-10.28601,-2.44786,-2.50286,-4.87296*1B
$PIM2,8414,-0.9984,-0.0575,-0.0014,-0.0073*49
$PENV,8416,974.06842,1087.410,-1.00*0D
$PIMU,8517,0.89777,0.10294,-9.85268,1.87038,-2.47997,0.79568*20
$PIM2,8517,-0.9986,-0.0543,-0.0014,-0.0049*45
$PENV,8519,973.96045,1090.456,-1.00*06
$PIMU,8617,0.82834,-0.13407,-10.70137,2.41970,-2.01457,-1.95853*1D
$PIM2,8617,-0.9987,-0.0534,-0.0012,-0.0035*4A
$PENV,8619,973.88861,1092.481,-1.00*0C
$PIMU,8717,0.76131,-0.09456,-10.57209,0.84041,-1.16008,-3.78959*1E
$PIM2,8717,-0.9987,-0.0527,-0.0010,-0.0024*4B
$PENV,8719,973.82544,1094.264,-1.00*06
$PIMU,8817,1.44002,-0.09816,-9.93887,-3.09636,0.25899,-2.29423*20
$PIM2,8817,-0.9989,-0.0499,-0.0006,-0.0000*4F
$PENV,8818,973.76105,1096.081,-1.00*09
$GNRMC,143539.00,A,3326.36441,N,09622.48074,W,101.427,143.29,190725,,,A,V*15
$GNVTG,143.29,T,,M,101.427,N,187.843,K,A*2E
$GNGGA,143539.00,3326.36441,N,09622.48074,W,1,12,0.55,378.0,M,-25.6,M,,*7A
$PTH,8843*67
$PFIX,8843,2025-07-19T14:35:39.000Z,33.4394068,-96.3746790,378.00,1,0.6,0.8,52.18,143.3*1B
$GNGSA,A,3,06,15,13,12,21,20,11,25,29,05,,,1.08,0.55,0.93,1*09
$GNGSA,A,3,72,65,88,71,86,87,79,,,,,,1.08,0.55,0.93,2*0E
$GNGSA,A,3,27,05,08,34,03,13,21,,,,,,1.08,0.55,0.93,3*0D
$GNGSA,A,3,33,30,28,,,,,,,,,,1.08,0.55,0.93,4*0E
$GNGSA,A,3,,,,,,,,,,,,,1.08,0.55,0.93,5*06
$GQGSV,1,1,00,0*64
$GNGLL,3326.36441,N,09622.48074,W,143539.00,A,A*6C
$PTH,8969*6E
$PFIX,8969,2025-07-19T14:35:39.000Z,33.4394068,-96.3746790,378.00,1,0.6,0.8,52.18,143.3*12
$PIMU,8994,0.74574,0.11731,-10.84023,-3.44731,-3.64726,-4.21683*13
$PIM2,8994,-0.9994,-0.0387,-0.0020, 0.0048*44
$PENV,8995,973.62140,1100.020,-1.00*0C
$PIMU,9087,0.63921,0.04429,-10.92043,0.77175,-5.36388,-1.50077*3B
$PIM2,9087,-0.9995,-0.0351,-0.0019, 0.0069*4D
$PENV,9088,973.60730,1100.418,-1.00*04
$PIMU,9186,1.04261,0.14125,-10.79474,0.05458,-1.48815,-0.37925*3A
$PIM2,9186,-0.9995,-0.0340,-0.0026, 0.0088*4E
$PENV,9188,973.54034,1102.307,-1.00*0A
$PIMU,9286,1.02106,0.00239,-10.32551,1.30580,-2.02220,-3.34708*3C
$PIM2,9286,-0.9995,-0.0325,-0.0039, 0.0101*40
$PENV,9288,973.46466,1104.443,-1.00*08
$PIMU,9391,0.61647,0.16639,-10.40571,-0.59392,-1.32793,-3.96506*16
$PIM2,9391,-0.9995,-0.0313,-0.0042, 0.0128*45
$PENV,9392,973.34619,1107.785,-1.00*07
$PIMU,9489,1.14794,0.16160,-10.67983,-1.95195,1.16688,-2.72910*3F
$PIM2,9489,-0.9996,-0.0279,-0.0061, 0.0153*48
$PENV,9491,973.30896,1108.835,-1.00*05
$PIMU,9589,0.84390,0.02155,-10.63434,0.91670,-2.82329,-0.29533*38
$PIM2,9589,-0.9996,-0.0260,-0.0065, 0.0176*42
$PENV,9591,973.21143,1111.589,-1.00*07
$PIMU,9690,0.66674,0.25975,-10.34586,0.50472,-2.62493,-0.44028*34
$PIM2,9690,-0.9996,-0.0256,-0.0057, 0.0192*47
$PENV,9691,973.16821,1112.807,-1.00*05
$PIMU,9789,0.35432,0.10175,-11.00661,0.55049,-0.70232,-2.17979*35
$PIM2,9789,-0.9996,-0.0248,-0.0057, 0.0202*4B
$PENV,9790,973.06647,1115.679,-1.00*0A
$GNRMC,143540.00,A,3326.34234,N,09622.45982,W,101.366,140.08,190725,,,A,V*12
$GNVTG,140.08,T,,M,101.366,N,187.730,K,A*27
$GNGGA,143540.00,3326.34234,N,09622.45982,W,1,12,0.53,385.8,M,-25.6,M,,*73
$PTH,9813*63
$PFIX,9813,2025-07-19T14:35:40.000Z,33.4390390,-96.3743303,385.80,1,0.5,0.8,52.15,140.1*1F
$GNGSA,A,3,06,15,13,12,21,20,11,25,29,05,,,1.06,0.53,0.92,1*00
$GNGSA,A,3,72,65,88,71,86,87,79,,,,,,1.06,0.53,0.92,2*07
$GNGSA,A,3,27,30,05,08,34,03,13,21,,,,,1.06,0.53,0.92,3*07
$GNGSA,A,3,33,30,28,,,,,,,,,,1.06,0.53,0.92,4*07
$GNGSA,A,3,,,,,,,,,,,,,1.06,0.53,0.92,5*0F
$GQGSV,1,1,00,0*64
$GNGLL,3326.34234,N,09622.45982,W,143540.00,A,A*69
$PTH,9940*64
$PFIX,9940,2025-07-19T14:35:40.000Z,33.4390390,-96.3743303,385.80,1,0.5,0.8,52.15,140.1*18
$PIMU,9961,0.54824,-0.16998,-10.08850,2.64095,-2.25871,-2.81303*12
$PIM2,9961,-0.9995,-0.0262,-0.0064, 0.0232*4B
$PENV,9963,972.91003,1120.094,-1.00*02
$PIMU,10057,0.92410,-0.02993,-10.42366,0.32161,0.52601,-1.15745*0C
$PIM2,10057,-0.9994,-0.0262,-0.0078, 0.0251*76
$PENV,10058,972.83875,1122.107,-1.00*38
$PIMU,10157,0.76490,-0.26095,-10.82107,1.38973,0.51838,-1.12693*05
$PIM2,10157,-0.9994,-0.0262,-0.0089, 0.0273*79
$PENV,10158,972.74396,1124.783,-1.00*3B
$PIMU,10262,0.70265,0.15442,-10.77439,2.17555,1.52546,-3.33182*2D
$PIM2,10262,-0.9993,-0.0266,-0.0103, 0.0295*74
$PENV,10263,972.56110,1129.946,-1.00*36
$PIMU,10362,0.96839,-0.03112,-10.46436,4.22023,0.45735,0.68124*29
$PIM2,10362,-0.9992,-0.0286,-0.0115, 0.0312*73
$PENV,10364,972.50122,1131.638,-1.00*38
$PIMU,10461,0.48120,-0.23701,-10.70616,6.89052,-1.42711,-0.67680*2F
$PIM2,10461,-0.9990,-0.0326,-0.0104, 0.0328*77
$PENV,10463,972.42944,1133.664,-1.00*38
$PIMU,10561,0.80320,-0.70145,-10.57808,4.82296,-2.64018,-0.86753*26
$PIM2,10561,-0.9988,-0.0377,-0.0094, 0.0337*7D
$PENV,10562,972.39221,1134.715,-1.00*3C
$PIMU,10661,0.81038,-0.64041,-9.92570,-0.72361,-2.12902,-1.90513*31
$PIM2,10661,-0.9987,-0.0392,-0.0098, 0.0356*71
$PENV,10662,972.28058,1137.868,-1.00*35
$PIMU,10761,0.60689,-0.48360,-10.73489,-1.28056,-2.22057,-2.42393*0C
$PIM2,10761,-0.9986,-0.0377,-0.0099, 0.0381*71
$PENV,10763,972.24530,1138.865,-1.00*30
$GNRMC,143541.00,A,3326.32125,N,09622.43756,W,101.423,137.20,190725,,,A,V*1B
$GNVTG,137.20,T,,M,101.423,N,187.836,K,A*22
$GNGGA,143541.00,3326.32125,N,09622.43756,W,1,12,0.50,394.0,M,-25.6,M,,*7D
$PTH,10787*59
$PFIX,10787,2025-07-19T14:35:41.000Z,33.4386875,-96.3739593,394.00,1,0.5,0.8,52.18,137.2*27
$GNGSA,A,3,06,15,13,12,21,20,11,25,29,05,,,0.99,0.50,0.86,1*01
$GNGSA,A,3,72,65,88,71,86,87,79,,,,,,0.99,0.50,0.86,2*06
$GNGSA,A,3,27,30,05,08,34,03,13,21,,,,,0.99,0.50,0.86,3*06
$GNGSA,A,3,33,30,28,,,,,,,,,,0.99,0.50,0.86,4*06
$GNGSA,A,3,,,,,,,,,,,,,0.99,0.50,0.86,5*0E
$GQGSV,1,1,00,0*64
$GNGLL,3326.32125,N,09622.43756,W,143541.00,A,A*6C
$PTH,10913*5A
$PFIX,10913,2025-07-19T14:35:41.000Z,33.4386875,-96.3739593,394.00,1,0.5,0.8,52.18,137.2*24
$PIMU,10933,0.65956,-0.29327,-10.94317,2.24422,-0.59551,-3.21738*29
$PIM2,10933,-0.9985,-0.0359,-0.0100, 0.0422*78
$PENV,10934,972.12408,1142.289,-1.00*36
$PIMU,11033,0.85348,-0.16758,-10.11842,1.48128,2.16633,-1.41685*0A
$PIM2,11033,-0.9984,-0.0365,-0.0087, 0.0440*74
$PENV,11035,972.06573,1143.937,-1.00*38
$PIMU,11135,0.98156,-0.18075,-10.33030,-1.41789,1.63228,-1.93565*23
$PIM2,11135,-0.9984,-0.0363,-0.0086, 0.0456*73
$PENV,11137,971.92450,1147.926,-1.00*31
$PIMU,11234,0.83552,-0.18434,-10.15074,-0.40318,0.23610,2.35970*02
$PIM2,11234,-0.9984,-0.0346,-0.0086, 0.0466*75
$PENV,11236,971.83154,1150.553,-1.00*3A
$PIMU,11335,1.02944,-0.71342,-9.98077,2.17555,-3.70067,-4.18632*17
$PIM2,11335,-0.9983,-0.0355,-0.0071, 0.0484*74
$PENV,11337,971.76587,1152.409,-1.00*36
$PIMU,11434,0.58056,-0.29926,-10.24770,-1.25767,-0.06145,1.20004*20
$PIM2,11434,-0.9982,-0.0353,-0.0077, 0.0495*73
$PENV,11436,971.67462,1154.987,-1.00*37
$PIMU,11534,0.91333,-0.43931,-10.14835,-0.25059,-0.00041,0.78805*2E
$PIM2,11534,-0.9982,-0.0340,-0.0076, 0.0503*7F
$PENV,11535,971.55951,1158.240,-1.00*35
$PIMU,11634,0.69188,-0.70145,-10.38177,3.41152,0.44209,-0.69205*00
$PIM2,11634,-0.9982,-0.0355,-0.0068, 0.0513*76
$PENV,11636,971.47772,1160.552,-1.00*36
$PIMU,11734,0.44409,-0.72180,-10.01189,4.09816,-0.03093,-2.05772*22
$PIM2,11734,-0.9980,-0.0391,-0.0055, 0.0521*72
$PENV,11736,971.37347,1163.499,-1.00*37
$PIMU,11834,0.85826,-0.77208,-9.75094,2.85457,-0.16063,-1.88224*11
$PIM2,11834,-0.9979,-0.0416,-0.0052, 0.0525*70
$PENV,11835,971.28143,1166.099,-1.00*32
$GNRMC,143542.00,A,3326.30107,N,09622.41417,W,101.489,134.47,190725,,,A,V*1C
$GNVTG,134.47,T,,M,101.489,N,187.958,K,A*29
$GNGGA,143542.00,3326.30107,N,09622.41417,W,1,12,0.50,401.9,M,-25.6,M,,*7A
$PTH,11860*5E
$PFIX,11860,2025-07-19T14:35:42.000Z,33.4383512,-96.3735695,401.90,1,0.5,0.8,52.21,134.5*2F
$GNGSA,A,3,06,15,13,12,21,20,11,25,29,05,,,0.99,0.50,0.86,1*01
$GNGSA,A,3,72,65,88,71,86,87,79,,,,,,0.99,0.50,0.86,2*06
$GNGSA,A,3,27,30,05,08,34,03,13,21,,,,,0.99,0.50,0.86,3*06
$GNGSA,A,3,33,30,28,,,,,,,,,,0.99,0.50,0.86,4*06
$GNGSA,A,3,,,,,,,,,,,,,0.99,0.50,0.86,5*0E
$GQGSV,1,1,00,0*64
$GNGLL,3326.30107,N,09622.41417,W,143542.00,A,A*69
$PTH,11986*57
$PFIX,11986,2025-07-19T14:35:42.000Z,33.4383512,-96.3735695,401.90,1,0.5,0.8,52.21,134.5*26
$PIMU,12010,0.67033,-0.59133,-10.09568,-1.54759,1.31184,-2.18742*2F
$PIM2,12010,-0.9975,-0.0427,-0.0056, 0.0583*7B
$PENV,12011,971.04913,1172.667,-1.00*3E
$PIMU,12104,0.59492,-0.51831,-10.13398,-0.50999,-2.65544,-3.29368*07
$PIM2,12104,-0.9974,-0.0406,-0.0067, 0.0614*72
$PENV,12105,970.99640,1174.158,-1.00*3B
$PIMU,12204,0.38424,-0.74455,-10.52062,-0.24296,-2.98351,-2.22556*02
$PIM2,12204,-0.9972,-0.0404,-0.0054, 0.0645*71
$PENV,12206,970.94061,1175.735,-1.00*3F
$PIMU,12304,0.80919,-0.50275,-10.34945,-2.69200,1.06007,-2.01957*2C
$PIM2,12304,-0.9971,-0.0387,-0.0057, 0.0675*7F
$PENV,12305,970.87823,1177.499,-1.00*36
$PIMU,12405,0.61886,-0.73018,-10.96591,-0.59392,0.05299,-3.75907*2C
$PIM2,12405,-0.9969,-0.0368,-0.0062, 0.0712*77
$PENV,12406,970.72723,1181.769,-1.00*32
$PIMU,12505,0.35432,-0.81637,-10.34346,-0.47184,0.11403,-4.75089*2F
$PIM2,12505,-0.9965,-0.0376,-0.0061, 0.0755*75
$PENV,12507,970.66699,1183.472,-1.00*3C
$PIMU,12605,0.45607,-0.98275,-10.21778,-0.46422,-0.38951,-3.28605*01
$PIM2,12605,-0.9963,-0.0380,-0.0073, 0.0789*7B
$PENV,12607,970.56396,1186.386,-1.00*3F
$PIMU,12706,0.60210,-1.08450,-9.92331,-1.89854,1.09059,-5.31547*1D
$PIM2,12706,-0.9959,-0.0377,-0.0080, 0.0836*7F
$PENV,12708,970.46265,1189.253,-1.00*3B
$PIMU,12805,0.30883,-0.78644,-9.78086,-4.55357,0.80067,-7.18467*15
$PIM2,12805,-0.9955,-0.0348,-0.0105, 0.0887*75
$PENV,12806,970.31940,1193.304,-1.00*3E
$GNRMC,143543.00,A,3326.28175,N,09622.38956,W,101.687,131.77,190725,,,A,V*1D
$GNVTG,131.77,T,,M,101.687,N,188.324,K,A*2D
$GNGGA,143543.00,3326.28175,N,09622.38956,W,1,12,0.53,410.2,M,-25.6,M,,*79
$PTH,12833*5B
$PFIX,12833,2025-07-19T14:35:43.000Z,33.4380292,-96.3731593,410.20,1,0.5,0.8,52.31,131.8*24
$GNGSA,A,3,06,15,13,12,21,20,11,25,29,05,,,1.06,0.53,0.92,1*00
$GNGSA,A,3,72,65,88,71,86,87,79,,,,,,1.06,0.53,0.92,2*07
$GNGSA,A,3,27,30,05,08,34,03,13,21,,,,,1.06,0.53,0.92,3*07
$GNGSA,A,3,33,30,28,,,,,,,,,,1.06,0.53,0.92,4*07
$GNGSA,A,3,,,,,,,,,,,,,1.06,0.53,0.92,5*0F
$GQGSV,1,1,00,0*64
$GNGLL,3326.28175,N,09622.38956,W,143543.00,A,A*62
$PTH,12960*5C
$PFIX,12960,2025-07-19T14:35:43.000Z,33.4380292,-96.3731593,410.20,1,0.5,0.8,52.31,131.8*23
$PIMU,12980,0.22145,-0.21905,-9.35472,-5.11052,1.10585,-7.92472*19
$PIM2,12980,-0.9947,-0.0285,-0.0126, 0.0988*75
$PENV,12981,970.19977,1196.688,-1.00*3A
$PIMU,13077,0.53627,-0.12210,-9.41936,-4.79008,1.67805,-4.86533*1A
$PIM2,13077,-0.9943,-0.0237,-0.0146, 0.1039*7C
$PENV,13078,970.10406,1199.396,-1.00*33
$PIMU,13177,0.75412,-0.02514,-10.15553,-0.96776,-0.64891,-3.06480*00
$PIM2,13177,-0.9939,-0.0216,-0.0150, 0.1082*74
$PENV,13179,970.00818,1202.109,-1.00*34
$PIMU,13277,0.08738,0.06105,-9.85388,-0.44896,0.30476,-3.15635*37
$PIM2,13277,-0.9934,-0.0204,-0.0143, 0.1128*7A
$PENV,13278,969.80682,1207.807,-1.00*39
$PIMU,13379,0.67751,0.11372,-9.39422,0.43605,0.77778,-3.59885*17
$PIM2,13379,-0.9930,-0.0188,-0.0151, 0.1164*7D
$PENV,13380,969.73199,1209.925,-1.00*31
$PIMU,13478,0.53866,-0.23821,-9.12968,1.42787,-3.93718,-2.98087*19
$PIM2,13478,-0.9927,-0.0195,-0.0132, 0.1192*7D
$PENV,13480,969.68176,1211.347,-1.00*3A
$PIMU,13578,0.35911,0.25975,-9.18115,-0.60154,-0.92357,-1.95853*1C
$PIM2,13578,-0.9924,-0.0179,-0.0133, 0.1221*77
$PENV,13579,969.60388,1213.552,-1.00*36
$PIMU,13678,0.47043,0.45367,-8.78494,-0.19719,-2.37316,-4.28550*14
$PIM2,13678,-0.9921,-0.0169,-0.0135, 0.1246*77
$PENV,13679,969.43787,1218.252,-1.00*33
$PIMU,13778,0.66913,0.26574,-9.04110,-1.46367,0.04536,-0.40977*36
$PIM2,13778,-0.9918,-0.0161,-0.0134, 0.1271*71
$PENV,13779,969.36652,1220.272,-1.00*30
$GNRMC,143544.00,A,3326.26342,N,09622.36378,W,102.083,129.17,190725,,,A,V*14
$GNVTG,129.17,T,,M,102.083,N,189.058,K,A*2A
$GNGGA,143544.00,3326.26342,N,09622.36378,W,1,12,0.50,418.7,M,-25.6,M,,*70
$PTH,13802*58
$PFIX,13802,2025-07-19T14:35:44.000Z,33.4377237,-96.3727297,418.70,1,0.5,0.8,52.52,129.2*28
$GNGSA,A,3,06,15,13,12,21,20,11,25,29,05,,,0.99,0.50,0.86,1*01
$GNGSA,A,3,72,65,88,71,86,87,79,,,,,,0.99,0.50,0.86,2*06
$GNGSA,A,3,27,30,05,08,34,03,13,21,,,,,0.99,0.50,0.86,3*06
$GNGSA,A,3,33,30,28,,,,,,,,,,0.99,0.50,0.86,4*06
$GNGSA,A,3,,,,,,,,,,,,,0.99,0.50,0.86,5*0E
$GQGSV,1,1,00,0*64
$GNGLL,3326.26342,N,09622.36378,W,143544.00,A,A*65
$PTH,13931*59
$PFIX,13931,2025-07-19T14:35:44.000Z,33.4377237,-96.3727297,418.70,1,0.5,0.8,52.52,129.2*29
$PIMU,13948,0.76131,0.54584,-10.02505,0.77175,-2.07561,0.68124*2E
$PIM2,13948,-0.9915,-0.0157,-0.0108, 0.1294*70
$PENV,13950,969.31152,1221.828,-1.00*31
$PIMU,14047,0.62844,0.42973,-10.21179,3.64803,-3.47942,0.35317*27
$PIM2,14047,-0.9915,-0.0173,-0.0081, 0.1298*7B
$PENV,14048,969.22443,1224.296,-1.00*3B
$PIMU,14149,0.89777,0.45966,-10.17468,4.07527,-2.98351,-1.61521*0D
$PIM2,14149,-0.9914,-0.0203,-0.0057, 0.1301*7B
$PENV,14150,969.09680,1227.908,-1.00*38
$PIMU,14248,0.86305,0.24060,-10.05498,0.97774,-3.15898,-0.07407*02
$PIM2,14248,-0.9913,-0.0220,-0.0040, 0.1307*7F
$PENV,14249,969.08929,1228.122,-1.00*31
$PIMU,14348,0.30644,0.24539,-10.53020,-1.67729,-4.04399,-2.84354*2D
$PIM2,14348,-0.9911,-0.0215,-0.0041, 0.1324*7A
$PENV,14349,969.01550,1230.212,-1.00*32
$PIMU,14449,0.64998,0.58056,-10.28960,-0.28874,0.42683,-1.22611*01
$PIM2,14449,-0.9910,-0.0199,-0.0046, 0.1332*7A
$PENV,14451,969.00146,1230.609,-1.00*30
$PIMU,14548,1.22216,0.03950,-9.95323,1.63387,-1.25163,1.06271*14
$PIM2,14548,-0.9909,-0.0206,-0.0043, 0.1338*78
$PENV,14549,968.90033,1233.473,-1.00*3F
$PIMU,14648,0.37706,0.29806,-10.00949,4.48726,-1.55681,0.18533*2E
$PIM2,14648,-0.9909,-0.0225,-0.0031, 0.1334*73
$PENV,14650,968.78668,1236.693,-1.00*33
$PIMU,14747,0.26694,-0.53267,-9.41457,8.88179,-3.26579,0.02511*3D
$PIM2,14747,-0.9909,-0.0282,-0.0007, 0.1323*73
$PENV,14749,968.69904,1239.176,-1.00*3C
$PIMU,14848,0.64879,-0.75891,-9.01597,7.37880,-5.35625,1.81039*37
$PIM2,14848,-0.9908,-0.0349, 0.0036, 0.1320*78
$PENV,14849,968.62177,1241.364,-1.00*3A
$GNRMC,143545.00,A,3326.24611,N,09622.33675,W,102.933,125.88,190725,,,A,V*11
$GNVTG,125.88,T,,M,102.933,N,190.631,K,A*23
$GNGGA,143545.00,3326.24611,N,09622.33675,W,1,12,0.51,426.9,M,-25.6,M,,*7F
$PTH,14871*5B
$PFIX,14871,2025-07-19T14:35:45.000Z,33.4374352,-96.3722792,426.90,1,0.5,0.8,52.95,125.9*21
$GNGSA,A,3,06,15,13,12,21,20,11,25,29,05,,,1.01,0.51,0.88,1*0E
$GNGSA,A,3,72,65,88,71,86,87,79,,,,,,1.01,0.51,0.88,2*09
$GNGSA,A,3,27,30,05,08,34,03,13,21,,,,,1.01,0.51,0.88,3*09
$GNGSA,A,3,33,30,28,,,,,,,,,,1.01,0.51,0.88,4*09
$GNGSA,A,3,,,,,,,,,,,,,1.01,0.51,0.88,5*01
$GQGSV,1,1,00,0*64
$GNGLL,3326.24611,N,09622.33675,W,143545.00,A,A*68
$PTH,15003*57
$PFIX,15003,2025-07-19T14:35:45.000Z,33.4374352,-96.3722792,426.90,1,0.5,0.8,52.95,125.9*2D
$PIMU,15022,0.15202,-0.74574,-9.44330,7.51613,-7.85106,-7.71110*1A
$PIM2,15022,-0.9896,-0.0426, 0.0131, 0.1378*7E
$PENV,15024,968.39160,1247.886,-1.00*31
$PIMU,15120,0.74455,-1.61239,-9.17996,18.68556,0.41920,-12.33451*3B
$PIM2,15120,-0.9880,-0.0528, 0.0157, 0.1453*7B
$PENV,15122,968.29968,1250.490,-1.00*3A
$PIMU,15218,-0.76250,-1.14076,-9.60251,17.27413,-6.26415,8.11990*27
$PIM2,15218,-0.9867,-0.0676, 0.0191, 0.1472*7B
$PENV,15219,968.19897,1253.344,-1.00*3E
$PIMU,15318,0.04309,-2.57120,-8.38514,10.56789,-7.19493,4.74008*0A
$PIM2,15318,-0.9871,-0.0763, 0.0340, 0.1376*75
$PENV,15320,968.11438,1255.741,-1.00*33
$PIMU,15418,0.18434,-2.57719,-9.04350,2.88509,-3.60149,-2.15690*14
$PIM2,15418,-0.9865,-0.0809, 0.0375, 0.1383*78
$PENV,15419,967.98773,1259.331,-1.00*33
$PIMU,15519,0.40938,-2.12471,-9.05666,-7.33067,4.50856,-9.64896*1B
$PIM2,15519,-0.9857,-0.0804, 0.0368, 0.1443*73
$PENV,15521,967.85400,1263.122,-1.00*3B
$PIMU,15618,0.75053,-1.65428,-8.80768,-14.36497,-8.49956,-10.41190*33
$PIM2,15618,-0.9851,-0.0691, 0.0399, 0.1530*7E
$PENV,15619,967.76874,1265.538,-1.00*39
$PIMU,15718,0.29447,-1.37897,-9.27332,-12.42711,-29.88475,-6.59721*3A
$PIM2,15718,-0.9836,-0.0554, 0.0513, 0.1647*73
$PENV,15720,967.71710,1267.002,-1.00*36
$PIMU,15818,-0.72420,-0.84629,-9.58575,-3.56938,-20.29460,1.46706*0F
$PIM2,15818,-0.9825,-0.0470, 0.0679, 0.1679*7B
$PENV,15820,967.60791,1270.098,-1.00*35
$GNRMC,143546.00,A,3326.22967,N,09622.30863,W,103.425,123.74,190725,,,A,V*1E
$GNVTG,123.74,T,,M,103.425,N,191.543,K,A*2A
$GNGGA,143546.00,3326.22967,N,09622.30863,W,1,12,0.52,434.7,M,-25.6,M,,*70
$PTH,15843*5B
$PFIX,15843,2025-07-19T14:35:46.000Z,33.4371612,-96.3718105,434.70,1,0.5,0.8,53.21,123.7*2C
$GNGSA,A,3,06,15,13,12,21,20,11,25,29,05,,,1.00,0.52,0.85,1*01
$GNGSA,A,3,72,65,88,71,86,87,79,,,,,,1.00,0.52,0.85,2*06
$GNGSA,A,3,27,30,05,08,34,03,13,21,,,,,1.00,0.52,0.85,3*06
$GNGSA,A,3,33,30,28,,,,,,,,,,1.00,0.52,0.85,4*06
$GNGSA,A,3,,,,,,,,,,,,,1.00,0.52,0.85,5*0E
$GQGSV,1,1,00,0*64
$GNGLL,3326.22967,N,09622.30863,W,143546.00,A,A*69
$PTH,15975*5F
$PFIX,15975,2025-07-19T14:35:46.000Z,33.4371612,-96.3718105,434.70,1,0.5,0.8,53.21,123.7*28
$PIMU,15992,-1.94636,-0.62724,-9.09736,-2.76829,6.71345,-0.72257*39
$PIM2,15992,-0.9798,-0.0419, 0.0885, 0.1750*79
$PENV,15993,967.49475,1273.306,-1.00*39
$PIMU,16089,-1.07373,-1.43643,-9.50315,-5.01896,0.84645,-11.16721*00
$PIM2,16089,-0.9792,-0.0404, 0.0874, 0.1792*7F
$PENV,16091,967.46655,1274.106,-1.00*3B
$PIMU,16189,-1.05577,-0.78166,-9.35353,-4.69853,7.13307,-7.60429*38
$PIM2,16189,-0.9784,-0.0378, 0.0815, 0.1870*71
$PENV,16190,967.43457,1275.013,-1.00*3A
$PIMU,16289,-1.07014,-1.02345,-10.17229,-4.40861,10.62733,-0.44791*3A
$PIM2,16289,-0.9789,-0.0349, 0.0715, 0.1886*7B
$PENV,16291,967.28955,1279.126,-1.00*31
$PIMU,16389,-0.52190,-1.50466,-9.93408,-2.21135,1.92219,0.87960*1E
$PIM2,16389,-0.9797,-0.0337, 0.0642, 0.1876*70
$PENV,16390,967.25128,1280.211,-1.00*3F
$PIMU,16489,0.15801,-1.27004,-10.19743,1.33632,2.31129,-3.67515*09
$PIM2,16489,-0.9796,-0.0356, 0.0611, 0.1886*78
$PENV,16491,967.20197,1281.611,-1.00*3D
$PIMU,16590,-0.35791,-1.29039,-10.93479,7.61531,-8.40801,-4.93400*0B
$PIM2,16590,-0.9790,-0.0389, 0.0624, 0.1907*7B
$PENV,16592,967.17059,1282.501,-1.00*39
$PIMU,16690,-1.39573,-2.11514,-9.99872,6.89052,-22.07225,-4.11002*00
$PIM2,16690,-0.9773,-0.0452, 0.0693, 0.1956*7C
$PENV,16691,967.11340,1284.123,-1.00*36
$PIMU,16790,-1.28680,-2.50896,-9.29846,-1.66203,-20.62267,-17.03422*1D
$PIM2,16790,-0.9741,-0.0438, 0.0888, 0.2038*76
$PENV,16792,967.05328,1285.828,-1.00*3C
$GNRMC,143547.00,A,3326.21407,N,09622.27974,W,103.654,121.78,190725,,,A,V*1C
$GNVTG,121.78,T,,M,103.654,N,191.967,K,A*2A
$GNGGA,143547.00,3326.21407,N,09622.27974,W,1,12,0.52,442.0,M,-25.6,M,,*7E
$PTH,16815*5B
$PFIX,16815,2025-07-19T14:35:47.000Z,33.4369012,-96.3713290,442.00,1,0.5,0.8,53.32,121.8*2F
$GNGSA,A,3,06,15,13,12,21,20,11,25,29,05,,,1.00,0.52,0.85,1*01
$GNGSA,A,3,72,65,88,71,86,87,79,,,,,,1.00,0.52,0.85,2*06
$GNGSA,A,3,27,30,05,08,34,03,13,21,,,,,1.00,0.52,0.85,3*06
$GNGSA,A,3,33,30,28,,,,,,,,,,1.00,0.52,0.85,4*06
$GNGSA,A,3,,,,,,,,,,,,,1.00,0.52,0.85,5*0E
$GQGSV,1,1,00,0*64
$GNGLL,3326.21407,N,09622.27974,W,143547.00,A,A*61
$PTH,16945*5F
$PFIX,16945,2025-07-19T14:35:47.000Z,33.4369012,-96.3713290,442.00,1,0.5,0.8,53.32,121.8*2B
$PIMU,16962,-1.07732,-2.05409,-9.88620,7.43221,5.45460,-20.57426*27
$PIM2,16962,-0.9657,-0.0490, 0.0859, 0.2404*76
$PENV,16963,966.94525,1288.893,-1.00*33
$PIMU,17060,-0.72899,-2.26716,-9.22425,7.70687,6.82789,-20.58952*2E
$PIM2,17060,-0.9614,-0.0600, 0.0822, 0.2562*7D
$PENV,17062,966.85846,1291.356,-1.00*38
$PIMU,17161,0.05985,-1.09887,-8.76579,6.82186,-6.09630,-6.94816*1C
$PIM2,17161,-0.9573,-0.0635, 0.0797, 0.2711*7E
$PENV,17163,966.68689,1296.223,-1.00*32
$PIMU,17262,0.12449,-1.42206,-8.83522,0.29872,-12.58891,-17.84293*18
$PIM2,17262,-0.9502,-0.0658, 0.0871, 0.2924*7C
$PENV,17263,966.63135,1297.799,-1.00*3F
$PIMU,17361,-0.78644,-2.01459,-9.54385,0.92433,-20.05809,-27.41019*37
$PIM2,17361,-0.9436,-0.0640, 0.0995, 0.3096*7B
$PENV,17362,966.55139,1300.068,-1.00*30
$PIMU,17461,-1.23892,-0.53866,-8.84120,-4.17973,-26.49730,-33.49082*17
$PIM2,17461,-0.9318,-0.0604, 0.1166, 0.3386*70
$PENV,17463,966.49463,1301.680,-1.00*30
$PIMU,17561,-1.71054,-1.73568,-8.18284,2.24422,-24.10930,-18.92631*38
$PIM2,17561,-0.9179,-0.0514, 0.1422, 0.3671*7E
$PENV,17562,966.40393,1304.254,-1.00*39
$PIMU,17662,-2.49340,-1.17907,-8.74544,14.58095,-22.36217,-6.73453*3E
$PIM2,17662,-0.9115,-0.0491, 0.1671, 0.3730*78
$PENV,17663,966.34521,1305.919,-1.00*34
$GNRMC,143548.00,A,3326.19924,N,09622.25014,W,104.160,119.79,190725,,,A,V*14
$GNVTG,119.79,T,,M,104.160,N,192.904,K,A*21
$GNGGA,143548.00,3326.19924,N,09622.25014,W,1,12,0.54,448.8,M,-25.6,M,,*7F
$PTH,17780*59
$PFIX,17780,2025-07-19T14:35:48.000Z,33.4366540,-96.3708357,448.80,1,0.5,0.8,53.58,119.8*2A
$GNGSA,A,3,06,15,13,12,21,20,11,25,29,05,,,1.04,0.54,0.89,1*0F
$GNGSA,A,3,72,65,88,71,86,87,79,,,,,,1.04,0.54,0.89,2*08
$GNGSA,A,3,27,30,05,08,34,03,13,21,,,,,1.04,0.54,0.89,3*08
$GNGSA,A,3,33,30,28,,,,,,,,,,1.04,0.54,0.89,4*08
$GNGSA,A,3,,,,,,,,,,,,,1.04,0.54,0.89,5*00
$GQGSV,1,1,00,0*64
$GNGLL,3326.19924,N,09622.25014,W,143548.00,A,A*64
$PTH,17909*56
$PFIX,17909,2025-07-19T14:35:48.000Z,33.4366540,-96.3708357,448.80,1,0.5,0.8,53.58,119.8*25
$PIMU,17923,-1.57408,-2.43833,-8.37077,7.05074,6.00392,1.71883*3B
$PIM2,17923,-0.9124,-0.0670, 0.1729, 0.3653*75
$PENV,17925,965.98621,1316.112,-1.00*3E
$PIMU,17928,-1.85897,-1.88052,-8.50963,6.28017,-2.67833,-4.30076*3F
$PIM2,17928,-0.9123,-0.0677, 0.1731, 0.3653*77
$PENV,17930,965.98621,1316.112,-1.00*3A
$PIMU,18025,-2.14147,-1.62196,-8.63172,0.95485,-1.77043,1.03982*16
$PIM2,18025,-0.9117,-0.0706, 0.1746, 0.3654*7B
$PENV,18027,965.93121,1317.673,-1.00*37
$PIMU,18125,-2.16421,-1.98346,-8.48329,-5.08000,-9.19383,-0.27244*1E
$PIM2,18125,-0.9105,-0.0650, 0.1798, 0.3669*76
$PENV,18127,965.83307,1320.460,-1.00*35
$PIMU,18225,-2.54726,-1.61718,-9.60849,2.30525,2.12056,13.03323*0C
$PIM2,18225,-0.9109,-0.0620, 0.1838, 0.3646*76
$PENV,18227,965.80884,1321.148,-1.00*3B
$PIMU,18325,-3.03684,-2.43115,-10.28601,-1.15849,-7.25597,4.13735*07
$PIM2,18325,-0.9156,-0.0636, 0.1800, 0.3543*77
$PENV,18326,965.78522,1321.819,-1.00*30
$PIMU,18430,-2.43235,-2.37010,-9.29846,-6.32359,5.59193,-2.65281*30
$PIM2,18430,-0.9181,-0.0599, 0.1754, 0.3506*77
$PENV,18432,965.70081,1324.216,-1.00*36
$PIMU,18528,-1.88052,-2.13668,-9.51393,-4.00425,-1.08379,-3.43101*16
$PIM2,18528,-0.9180,-0.0567, 0.1721, 0.3530*78
$PENV,18530,965.67700,1324.892,-1.00*3B
$PIMU,18628,-2.29110,-1.32151,-9.64201,-4.20262,3.92872,3.82455*14
$PIM2,18628,-0.9175,-0.0543, 0.1671, 0.3571*76
$PENV,18629,965.59283,1327.283,-1.00*3A
$PIMU,18728,-1.86137,-1.78955,-9.18834,3.68618,-2.77751,9.54659*1A
$PIM2,18728,-0.9180,-0.0556, 0.1657, 0.3562*7F
$PENV,18730,965.55627,1328.320,-1.00*32
$PIMU,18828,-2.75435,-1.76441,-9.65039,1.13033,9.37611,0.90249*36
$PIM2,18828,-0.9204,-0.0554, 0.1655, 0.3504*7F
$PENV,18829,965.54028,1328.774,-1.00*38
$GNRMC,143549.00,A,3326.18533,N,09622.21974,W,104.644,117.24,190725,,,A,V*12
$GNVTG,117.24,T,,M,104.644,N,193.801,K,A*23
$GNGGA,143549.00,3326.18533,N,09622.21974,W,1,12,0.51,455.0,M,-25.6,M,,*7F
$PTH,18855*51
$PFIX,18855,2025-07-19T14:35:49.000Z,33.4364222,-96.3703290,455.00,1,0.5,0.8,53.83,117.2*25
$GNGSA,A,3,06,15,13,12,21,20,11,25,29,05,,,0.97,0.51,0.83,1*0B
$GNGSA,A,3,72,65,88,71,86,87,79,,,,,,0.97,0.51,0.83,2*0C
$GNGSA,A,3,27,30,05,08,34,03,13,21,,,,,0.97,0.51,0.83,3*0C
$GNGSA,A,3,33,30,28,,,,,,,,,,0.97,0.51,0.83,4*0C
$GNGSA,A,3,,,,,,,,,,,,,0.97,0.51,0.83,5*04
$GQGSV,1,1,00,0*64
$GNGLL,3326.18533,N,09622.21974,W,143549.00,A,A*65
$PTH,18983*5B
$PFIX,18983,2025-07-19T14:35:49.000Z,33.4364222,-96.3703290,455.00,1,0.5,0.8,53.83,117.2*2F
$PIMU,19000,-1.85299,-1.57648,-8.64010,0.21480,1.70857,-8.52744*12
$PIM2,19000,-0.9149,-0.0594, 0.1581, 0.3670*70
$PENV,19002,965.44226,1331.558,-1.00*31
$PIMU,19097,-2.02297,-2.42157,-9.25058,3.67855,3.69221,-7.09312*1A
$PIM2,19097,-0.9119,-0.0599, 0.1621, 0.3727*7C
$PENV,19099,965.41779,1332.254,-1.00*31
$PIMU,19198,-2.67055,-2.42157,-8.89746,2.41207,1.38814,4.44253*35
$PIM2,19198,-0.9116,-0.0600, 0.1668, 0.3713*74
$PENV,19200,965.37457,1333.482,-1.00*31
$PIMU,19301,-3.06557,-2.30307,-9.06385,9.91176,1.71620,0.78805*3C
$PIM2,19301,-0.9095,-0.0619, 0.1759, 0.3719*7D
$PENV,19303,965.23901,1337.332,-1.00*30
$PIMU,19400,-2.97220,-2.57360,-8.67242,2.74776,4.66115,-13.29581*26
$PIM2,19400,-0.9097,-0.0675, 0.1763, 0.3703*71
$PENV,19401,965.16193,1339.523,-1.00*38
$PIMU,19500,-2.21210,-1.88651,-8.58624,-4.11870,2.01375,-12.27347*06
$PIM2,19500,-0.9065,-0.0714, 0.1715, 0.3795*75
$PENV,19502,965.08704,1341.650,-1.00*35
$PIMU,19600,-1.68421,-2.42397,-8.40309,-3.90507,0.75490,0.69650*1F
$PIM2,19600,-0.9055,-0.0711, 0.1688, 0.3830*75
$PENV,19601,965.00604,1343.952,-1.00*33
$PIMU,19700,-1.45318,-3.22478,-8.77536,-9.59660,-1.65599,-3.76670*19
$PIM2,19700,-0.9006,-0.0670, 0.1664, 0.3962*70
$PENV,19701,964.93817,1345.880,-1.00*3D
$PIMU,19801,-1.37179,-2.72562,-8.16129,-13.43419,-2.69359,-20.00968*1B
$PIM2,19801,-0.8961,-0.0578, 0.1633, 0.4089*75
$PENV,19803,964.87939,1347.550,-1.00*3A
$GNRMC,143550.00,A,3326.17228,N,09622.18853,W,105.457,115.38,190725,,,A,V*18
$GNVTG,115.38,T,,M,105.457,N,195.306,K,A*27
$GNGGA,143550.00,3326.17228,N,09622.18853,W,1,12,0.52,460.4,M,-25.6,M,,*7A
$PTH,19825*57
$PFIX,19825,2025-07-19T14:35:50.000Z,33.4362047,-96.3698088,460.40,1,0.5,0.8,54.25,115.4*29
$GNGSA,A,3,06,15,13,12,21,20,11,25,29,05,,,1.02,0.52,0.88,1*0E
$GNGSA,A,3,72,65,88,71,86,87,79,,,,,,1.02,0.52,0.88,2*09
$GNGSA,A,3,27,30,05,08,34,03,13,21,,,,,1.02,0.52,0.88,3*09
$GNGSA,A,3,33,30,28,,,,,,,,,,1.02,0.52,0.88,4*09
$GNGSA,A,3,,,,,,,,,,,,,1.02,0.52,0.88,5*01
$GQGSV,1,1,00,0*64
$GNGLL,3326.17228,N,09622.18853,W,143550.00,A,A*61
$PTH,19956*52
$PFIX,19956,2025-07-19T14:35:50.000Z,33.4362047,-96.3698088,460.40,1,0.5,0.8,54.25,115.4*2C
$PIMU,19973,-1.53578,-1.85299,-8.80290,-18.32463,-0.70232,-4.13291*21
$PIM2,19973,-0.8921,-0.0479, 0.1446, 0.4257*74
$PENV,19974,964.77832,1350.424,-1.00*3A
$PIMU,20070,-1.44959,-1.78236,-9.46964,-10.43583,16.65455,16.10787*23
$PIM2,20070,-0.8988,-0.0372, 0.1298, 0.4173*7B
$PENV,20072,964.70642,1352.467,-1.00*34
$PIMU,20175,-0.52190,-2.32940,-9.46605,2.99190,6.19465,7.27303*39
$PIM2,20175,-0.9053,-0.0393, 0.1184, 0.4063*70
$PENV,20177,964.61176,1355.157,-1.00*31
$PIMU,20274,-0.96600,-1.29877,-9.28170,2.57991,4.82899,-4.42283*1C
$PIM2,20274,-0.9065,-0.0407, 0.1145, 0.4046*77
$PENV,20276,964.58325,1355.968,-1.00*39
$PIMU,20373,-1.11922,-1.41847,-9.27572,5.40279,-5.88268,-6.74216*3A
$PIM2,20373,-0.9034,-0.0434, 0.1179, 0.4102*7B
$PENV,20374,964.56995,1356.347,-1.00*31
$PIMU,20473,-1.58605,-2.54726,-9.09018,5.72322,-7.36278,0.87197*15
$PIM2,20473,-0.9003,-0.0466, 0.1267, 0.4141*74
$PENV,20475,964.56433,1356.505,-1.00*36
$PIMU,20573,-1.50825,-2.19773,-8.80529,-2.85222,-7.72136,-5.12473*1F
$PIM2,20573,-0.8983,-0.0486, 0.1295, 0.4174*70
$PENV,20575,964.46747,1359.260,-1.00*3D
$PIMU,20673,-1.21498,-1.60521,-9.76770,-4.98845,-1.69414,2.21475*3A
$PIM2,20673,-0.8977,-0.0439, 0.1305, 0.4189*76
$PENV,20674,964.42719,1360.405,-1.00*3F
$PIMU,20775,-1.96431,-1.12400,-10.34346,-4.66038,1.34999,-2.79014*07
$PIM2,20775,-0.8981,-0.0403, 0.1277, 0.4192*7F
$PENV,20776,964.37830,1361.794,-1.00*30
$GNRMC,143551.00,A,3326.16004,N,09622.15644,W,106.158,113.49,190725,,,A,V*18
$GNVTG,113.49,T,,M,106.158,N,196.605,K,A*2B
$GNGGA,143551.00,3326.16004,N,09622.15644,W,1,12,0.50,466.9,M,-25.6,M,,*7A
$PTH,20798*54
$PFIX,20798,2025-07-19T14:35:51.000Z,33.4360007,-96.3692740,466.90,1,0.5,0.8,54.61,113.5*28
$GNGSA,A,3,06,15,13,12,21,20,11,25,29,05,,,0.95,0.50,0.81,1*0A
$GNGSA,A,3,72,65,88,71,86,87,79,,,,,,0.95,0.50,0.81,2*0D
$GNGSA,A,3,27,30,05,08,34,03,13,21,,,,,0.95,0.50,0.81,3*0D
$GNGSA,A,3,33,30,28,,,,,,,,,,0.95,0.50,0.81,4*0D
$GNGSA,A,3,,,,,,,,,,,,,0.95,0.50,0.81,5*05
$GQGSV,1,1,00,0*64
$GNGLL,3326.16004,N,09622.15644,W,143551.00,A,A*68
$PTH,20928*51
$PFIX,20928,2025-07-19T14:35:51.000Z,33.4360007,-96.3692740,466.90,1,0.5,0.8,54.61,113.5*2D
$PIMU,20945,-2.04691,-1.55613,-10.67743,-0.09800,2.40285,2.57333*21
$PIM2,20945,-0.8962,-0.0346, 0.1322, 0.4224*76
$PENV,20946,964.27655,1364.687,-1.00*37
$PIMU,21048,-1.14794,-2.06486,-10.97310,-0.89146,13.04585,3.21420*15
$PIM2,21048,-0.9005,-0.0383, 0.1220, 0.4160*73
$PENV,21049,964.26935,1364.891,-1.00*31
$PIMU,21145,-0.70026,-1.07014,-10.75404,-7.81132,15.01423,13.14004*20
$PIM2,21145,-0.9060,-0.0407, 0.1071, 0.4077*76
$PENV,21147,964.22516,1366.149,-1.00*39
$PIMU,21245,-0.39262,-1.21976,-10.71933,-12.18297,18.52376,8.20382*2C
$PIM2,21245,-0.9133,-0.0380, 0.0862, 0.3964*7D
$PENV,21247,964.19012,1367.145,-1.00*3E
$PIMU,21345,-0.58175,-0.54105,-9.97478,-16.02818,11.02406,8.30300*17
$PIM2,21345,-0.9182,-0.0309, 0.0676, 0.3894*72
$PENV,21347,964.16602,1367.830,-1.00*3C
$PIMU,21447,-2.03494,-0.29447,-11.38966,-20.92625,-0.71758,5.47250*37
$PIM2,21447,-0.9235,-0.0150, 0.0563, 0.3795*7F
$PENV,21449,964.11475,1369.289,-1.00*36
$PIMU,21546,0.68829,0.17357,-10.59364,-17.47777,4.98158,2.56570*17
$PIM2,21546,-0.9255, 0.0022, 0.0494, 0.3758*78
$PENV,21548,964.05798,1370.903,-1.00*32
$PIMU,21646,1.27363,2.00860,-9.26495,-2.36393,-9.30065,-2.41630*14
$PIM2,21646,-0.9224, 0.0094, 0.0433, 0.3841*7A
$PENV,21647,964.00427,1372.431,-1.00*32
$PIMU,21748,-2.53170,-0.19751,-11.12392,16.77822,-10.39928,4.10684*2F
$PIM2,21748,-0.9140, 0.0117, 0.0745, 0.3990*71
$PENV,21749,963.94922,1373.997,-1.00*3F
$PIMU,21846,-2.34377,0.70864,-10.49668,12.08614,3.65407,-2.49259*3C
$PIM2,21846,-0.9155, 0.0033, 0.0811, 0.3943*73
$PENV,21847,963.84186,1377.050,-1.00*3F
$GNRMC,143552.00,A,3326.14872,N,09622.12381,W,107.085,111.03,190725,,,A,V*17
$GNVTG,111.03,T,,M,107.085,N,198.321,K,A*2A
$GNGGA,143552.00,3326.14872,N,09622.12381,W,1,12,0.55,471.7,M,-25.6,M,,*74
$PTH,21871*5D
$PFIX,21871,2025-07-19T14:35:52.000Z,33.4358120,-96.3687302,471.70,1,0.6,0.8,55.09,111.0*28
$GNGSA,A,3,06,15,13,12,21,20,11,25,29,05,,,1.10,0.55,0.96,1*05
$GNGSA,A,3,72,65,88,71,86,87,79,,,,,,1.10,0.55,0.96,2*02
$GNGSA,A,3,27,30,05,08,34,03,13,21,,,,,1.10,0.55,0.96,3*02
$GNGSA,A,3,33,30,28,,,,,,,,,,1.10,0.55,0.96,4*02
$GNGSA,A,3,,,,,,,,,,,,,1.10,0.55,0.96,5*0A
$GQGSV,1,1,00,0*64
$GNGLL,3326.14872,N,09622.12381,W,143552.00,A,A*6B
$PTH,21999*5A
$PFIX,21999,2025-07-19T14:35:52.000Z,33.4358120,-96.3687302,471.70,1,0.6,0.8,55.09,111.0*2F
$PIMU,22016,0.68350,-0.11851,-10.59843,3.18264,34.11824,0.88723*19
$PIM2,22016,-0.9143,-0.0207, 0.0425, 0.4027*75
$PENV,22018,963.79156,1378.480,-1.00*37
$PIMU,22113,0.18793,-4.82998,-10.37578,14.38259,6.16414,0.13955*18
$PIM2,22113,-0.9122,-0.0401, 0.0280, 0.4072*7F
$PENV,22114,963.74365,1379.843,-1.00*37
$PIMU,22213,0.56859,-2.61070,-10.42366,11.70467,-17.18944,-19.26200*16
$PIM2,22213,-0.9074,-0.0450, 0.0379, 0.4165*7A
$PENV,22214,963.68951,1381.382,-1.00*35
$PIMU,22315,0.23581,-1.64471,-9.67552,10.80440,-10.91808,-4.20920*11
$PIM2,22315,-0.9024,-0.0496, 0.0525, 0.4251*79
$PENV,22317,963.56421,1384.948,-1.00*39
$PIMU,22413,-0.30883,-1.28440,-9.59054,6.26491,-20.96599,-3.02665*0B
$PIM2,22413,-0.8986,-0.0505, 0.0710, 0.4304*76
$PENV,22414,963.47437,1387.504,-1.00*3D
$PIMU,22513,-0.99951,-2.26716,-9.80839,0.75649,-16.38835,-3.60648*0B
$PIM2,22513,-0.8948,-0.0449, 0.0890, 0.4356*7C
$PENV,22515,963.41998,1389.050,-1.00*39
$PIMU,22614,-1.73329,-2.14147,-10.71813,-2.34868,-8.03417,7.11282*03
$PIM2,22614,-0.8958,-0.0408, 0.0939, 0.4328*77
$PENV,22616,963.36578,1390.593,-1.00*39
$PIMU,22714,-0.77806,-1.24610,-9.09976,-8.65056,13.23659,-5.26969*02
$PIM2,22714,-0.8997,-0.0352, 0.0892, 0.4262*72
$PENV,22716,963.26086,1393.578,-1.00*3B
$PIMU,22814,-0.03352,-1.97868,-9.25537,-4.25602,14.14448,-5.67405*06
$PIM2,22814,-0.8984,-0.0366, 0.0782, 0.4310*72
$PENV,22815,963.19427,1395.474,-1.00*3F
$GNRMC,143553.00,A,3326.13849,N,09622.09021,W,108.303,108.75,190725,,,A,V*11
$GNVTG,108.75,T,,M,108.303,N,200.578,K,A*29
$GNGGA,143553.00,3326.13849,N,09622.09021,W,1,12,0.55,477.3,M,-25.6,M,,*7B
$PTH,22842*5E
$PFIX,22842,2025-07-19T14:35:53.000Z,33.4356415,-96.3681702,477.30,1,0.6,0.8,55.72,108.8*2B
$GNGSA,A,3,06,15,13,12,21,20,11,25,29,05,,,1.06,0.55,0.90,1*04
$GNGSA,A,3,72,65,88,71,86,87,79,,,,,,1.06,0.55,0.90,2*03
$GNGSA,A,3,27,30,05,08,34,03,13,21,,,,,1.06,0.55,0.90,3*03
$GNGSA,A,3,33,30,28,,,,,,,,,,1.06,0.55,0.90,4*03
$GNGSA,A,3,,,,,,,,,,,,,1.06,0.55,0.90,5*0B
$GQGSV,1,1,00,0*64
$GNGLL,3326.13849,N,09622.09021,W,143553.00,A,A*66
$PTH,22971*5F
$PFIX,22971,2025-07-19T14:35:53.000Z,33.4356415,-96.3681702,477.30,1,0.6,0.8,55.72,108.8*2A
$PIMU,22988,-0.27172,-2.31384,-9.72101,-8.29960,-2.02220,10.02725*04
$PIM2,22988,-0.8951,-0.0378, 0.0789, 0.4375*79
$PENV,22990,963.08508,1398.582,-1.00*3A
$PIMU,23085,-0.16519,-1.59683,-9.86226,-3.21843,-5.84453,-1.51603*1E
$PIM2,23085,-0.8953,-0.0304, 0.0788, 0.4377*76
$PENV,23086,963.04742,1399.653,-1.00*3B
$PIMU,23187,-0.65597,-1.56451,-10.52661,3.64803,-6.47014,-4.45335*08
$PIM2,23187,-0.8921,-0.0300, 0.0865, 0.4427*7A
$PENV,23188,962.95801,1402.199,-1.00*31
$PIMU,23286,-1.55613,-1.40650,-9.85388,4.61696,-4.24236,-4.79667*3B
$PIM2,23286,-0.8876,-0.0308, 0.0953, 0.4498*73
$PENV,23288,962.90155,1403.806,-1.00*31
$PIMU,23386,-1.33348,-2.22287,-9.72580,5.85292,-4.89849,-10.50346*08
$PIM2,23386,-0.8852,-0.0338, 0.1026, 0.4527*78
$PENV,23388,962.89941,1403.867,-1.00*32
$PIMU,23486,-0.72061,-2.11274,-9.90416,8.24092,-1.85436,-9.81681*3E
$PIM2,23486,-0.8802,-0.0404, 0.1079, 0.4608*76
$PENV,23487,962.85480,1405.136,-1.00*3D
$PIMU,23587,-1.04380,-2.78307,-10.30755,7.70687,-4.76879,-14.11979*31
$PIM2,23587,-0.8731,-0.0473, 0.1134, 0.4721*7B
$PENV,23589,962.72852,1408.731,-1.00*35
$PIMU,23687,-0.04549,-2.79145,-10.05977,10.09487,-10.07884,-2.70621*04
$PIM2,23687,-0.8714,-0.0526, 0.1187, 0.4733*75
$PENV,23689,962.65851,1410.725,-1.00*3F
$PIMU,23787,-1.28440,-2.95305,-10.28840,9.63710,-13.21453,-2.97324*3D
$PIM2,23787,-0.8692,-0.0563, 0.1317, 0.4736*74
$PENV,23789,962.59387,1412.565,-1.00*35
$GNRMC,143554.00,A,3326.12901,N,09622.05596,W,108.963,107.42,190725,,,A,V*18
$GNVTG,107.42,T,,M,108.963,N,201.799,K,A*22
$GNGGA,143554.00,3326.12901,N,09622.05596,W,1,12,0.56,483.2,M,-25.6,M,,*7C
$PTH,23809*50
$PFIX,23809,2025-07-19T14:35:54.000Z,33.4354835,-96.3675993,483.20,1,0.6,0.8,56.06,107.4*2A
$GNGSA,A,3,06,15,13,12,21,20,11,25,29,05,,,1.12,0.56,0.97,1*05
$GNGSA,A,3,72,65,88,71,86,87,79,,,,,,1.12,0.56,0.97,2*02
$GNGSA,A,3,27,30,05,08,34,03,13,21,,,,,1.12,0.56,0.97,3*02
$GNGSA,A,3,33,30,28,,,,,,,,,,1.12,0.56,0.97,4*02
$GNGSA,A,3,,,,,,,,,,,,,1.12,0.56,0.97,5*0A
$GQGSV,1,1,00,0*64
$GNGLL,3326.12901,N,09622.05596,W,143554.00,A,A*68
$PTH,23942*5E
$PFIX,23942,2025-07-19T14:35:54.000Z,33.4354835,-96.3675993,483.20,1,0.6,0.8,56.06,107.4*24
$PIMU,23959,-0.67153,-2.59873,-9.50674,6.82949,-11.36058,-16.21024*3B
$PIM2,23959,-0.8639,-0.0590, 0.1545, 0.4761*77
$PENV,23960,962.46008,1416.374,-1.00*34
$PIMU,24060,-1.42326,-2.38088,-9.15841,1.54994,-7.63744,-5.82664*33
$PIM2,24060,-0.8567,-0.0587, 0.1647, 0.4855*74
$PENV,24061,962.33417,1419.962,-1.00*31
$PIMU,24161,-1.48550,-2.66337,-9.29607,-1.41026,-12.19982,-3.10294*23
$PIM2,24161,-0.8527,-0.0557, 0.1727, 0.4902*79
$PENV,24163,962.32581,1420.198,-1.00*3A
$PIMU,24260,-1.31313,-1.95833,-9.61089,-4.42387,-10.46031,-3.53019*25
$PIM2,24260,-0.8507,-0.0501, 0.1773, 0.4926*7D
$PENV,24261,962.30157,1420.889,-1.00*3F
$PIMU,24360,-2.37369,-2.41080,-9.59772,-3.65330,-6.36333,-1.46262*19
$PIM2,24360,-0.8462,-0.0452, 0.1808, 0.4995*72
$PENV,24361,962.23975,1422.650,-1.00*3C
$PIMU,24460,-2.20611,-1.91883,-9.64919,-4.32469,-1.17534,-0.49369*15
$PIM2,24460,-0.8455,-0.0422, 0.1806, 0.5010*7D
$PENV,24461,962.13831,1425.539,-1.00*32
$PIMU,24560,-2.01339,-1.21258,-10.02146,-0.13615,-0.45818,-15.72196*10
$PIM2,24560,-0.8419,-0.0410, 0.1809, 0.5069*74
$PENV,24562,962.07416,1427.366,-1.00*32
$PIMU,24659,-1.88651,-2.32102,-9.33916,3.60988,8.26222,-8.62662*19
$PIM2,24659,-0.8358,-0.0479, 0.1780, 0.5174*73
$PENV,24661,962.02441,1428.784,-1.00*32
$PIMU,24760,-1.29159,-1.77518,-9.78565,8.82076,0.54890,-18.33884*2E
$PIM2,24760,-0.8270,-0.0575, 0.1738, 0.5318*75
$PENV,24761,961.94220,1431.125,-1.00*3B
$PIMU,24859,-1.88890,-3.84364,-9.82515,8.90468,1.77723,-14.87510*21
$PIM2,24859,-0.8212,-0.0676, 0.1773, 0.5385*7F
$PENV,24861,961.81891,1434.639,-1.00*3F
$GNRMC,143555.00,A,3326.12041,N,09622.02111,W,109.549,105.43,190725,,,A,V*1E
$GNVTG,105.43,T,,M,109.549,N,202.886,K,A*26
$GNGGA,143555.00,3326.12041,N,09622.02111,W,1,12,0.53,489.9,M,-25.6,M,,*78
$PTH,24885*53
$PFIX,24885,2025-07-19T14:35:55.000Z,33.4353402,-96.3670185,489.90,1,0.5,0.8,56.36,105.4*2E
$GNGSA,A,3,06,15,13,12,21,20,11,25,29,05,,,1.00,0.53,0.85,1*00
$GNGSA,A,3,72,65,88,71,86,87,79,,,,,,1.00,0.53,0.85,2*07
$GNGSA,A,3,27,30,05,08,34,03,13,21,,,,,1.00,0.53,0.85,3*07
$GNGSA,A,3,33,30,28,,,,,,,,,,1.00,0.53,0.85,4*07
$GNGSA,A,3,,,,,,,,,,,,,1.00,0.53,0.85,5*0F
$GQGSV,1,1,00,0*64
$GNGLL,3326.12041,N,09622.02111,W,143555.00,A,A*68
$PTH,25016*50
$PFIX,25016,2025-07-19T14:35:55.000Z,33.4353402,-96.3670185,489.90,1,0.5,0.8,56.36,105.4*2D
$PIMU,25033,-0.85348,-2.61549,-9.08898,-5.84294,6.35487,0.41421*12
$PIM2,25033,-0.8182,-0.0744, 0.1758, 0.5426*77
$PENV,25035,961.70905,1437.769,-1.00*32
$PIMU,25130,-1.29877,-2.45030,-9.36669,-8.86418,5.80556,10.07302*28
$PIM2,25130,-0.8202,-0.0710, 0.1706, 0.5417*76
$PENV,25132,961.66534,1439.014,-1.00*3E
$PIMU,25232,-1.43164,-1.64830,-9.58096,-8.65819,-1.34319,13.58254*08
$PIM2,25232,-0.8235,-0.0615, 0.1669, 0.5389*7F
$PENV,25233,961.59448,1441.034,-1.00*37
$PIMU,25330,-1.12041,-1.73089,-9.94126,-0.12089,-4.79930,-19.13993*23
$PIM2,25330,-0.8254,-0.0577, 0.1670, 0.5364*77
$PENV,25332,961.49274,1443.933,-1.00*33
$PIMU,25430,-1.75124,-2.53888,-9.03033,1.15322,-5.03581,-1.50077*3A
$PIM2,25430,-0.8233,-0.0552, 0.1704, 0.5388*76
$PENV,25432,961.43719,1445.516,-1.00*3D
$PIMU,25530,-2.11753,-2.02416,-10.20820,6.19625,-0.51158,0.78042*2B
$PIM2,25530,-0.8223,-0.0571, 0.1741, 0.5389*77
$PENV,25532,961.40485,1446.438,-1.00*37
$PIMU,25631,-1.51304,-2.61669,-10.30516,5.89870,-5.01293,-6.81083*0E
$PIM2,25631,-0.8201,-0.0623, 0.1771, 0.5408*7C
$PENV,25632,961.40491,1446.436,-1.00*3F
$PIMU,25731,-0.95762,-2.91714,-9.80839,3.80825,-12.35240,-14.56992*35
$PIM2,25731,-0.8158,-0.0638, 0.1829, 0.5451*76
$PENV,25733,961.36212,1447.656,-1.00*36
$PIMU,25831,-2.77110,-2.30307,-10.24890,5.84529,-10.95622,-20.90232*08
$PIM2,25831,-0.8032,-0.0653, 0.1922, 0.5602*77
$PENV,25833,961.32892,1448.601,-1.00*32
$GNRMC,143556.00,A,3326.11280,N,09621.98569,W,110.529,103.16,190725,,,A,V*12
$GNVTG,103.16,T,,M,110.529,N,204.699,K,A*28
$GNGGA,143556.00,3326.11280,N,09621.98569,W,1,12,0.55,496.9,M,-25.6,M,,*74
$PTH,25855*5F
$PFIX,25855,2025-07-19T14:35:56.000Z,33.4352133,-96.3664282,496.90,1,0.6,0.8,56.86,103.2*20
$GNGSA,A,3,06,15,13,12,21,20,11,25,29,05,,,1.11,0.55,0.97,1*05
$GNGSA,A,3,72,65,88,71,86,87,79,,,,,,1.11,0.55,0.97,2*02
$GNGSA,A,3,27,30,05,08,34,03,13,21,,,,,1.11,0.55,0.97,3*02
$GNGSA,A,3,33,30,28,,,,,,,,,,1.11,0.55,0.97,4*02
$GNGSA,A,3,,,,,,,,,,,,,1.11,0.55,0.97,5*0A
$GQGSV,1,1,00,0*64
$GNGLL,3326.11280,N,09621.98569,W,143556.00,A,A*6C
$PTH,25984*52
$PFIX,25984,2025-07-19T14:35:56.000Z,33.4352133,-96.3664282,496.90,1,0.6,0.8,56.86,103.2*2D
$PIMU,26001,-1.95952,-3.83645,-10.27523,-5.67509,20.20985,-6.34544*31
$PIM2,26001,-0.7934,-0.0754, 0.1813, 0.5764*7B
$PENV,26003,961.21912,1451.731,-1.00*3B
$PIMU,26099,-1.55014,-2.02656,-10.59484,-0.43370,3.17341,2.78695*2A
$PIM2,26099,-0.7961,-0.0797, 0.1709, 0.5753*75
$PENV,26100,961.17786,1452.907,-1.00*37
$PIMU,26200,-1.05697,-3.41989,-9.78326,-4.71379,-0.00041,9.32534*35
$PIM2,26200,-0.8005,-0.0798, 0.1632, 0.5713*71
$PENV,26201,961.04633,1456.658,-1.00*39
$PIMU,26299,-0.14484,-1.32750,-8.96569,-5.49962,-1.69414,18.34328*09
$PIM2,26299,-0.8082,-0.0741, 0.1631, 0.5613*78
$PENV,26301,960.99365,1458.160,-1.00*39
$PIMU,26400,-1.29637,-1.52381,-8.97886,-14.97532,4.58485,44.96224*1D
$PIM2,26400,-0.8236,-0.0615, 0.1592, 0.5411*79
$PENV,26401,960.90540,1460.677,-1.00*3C
$PIMU,26499,-2.50656,-2.31145,-8.76459,-0.76939,7.37721,43.33718*22
$PIM2,26499,-0.8461,-0.0518, 0.1536, 0.5080*71
$PENV,26501,960.80115,1463.648,-1.00*37
$PIMU,26599,-2.05289,-2.17978,-9.16440,-10.29850,21.32374,35.02114*21
$PIM2,26599,-0.8672,-0.0470, 0.1398, 0.4759*7F
$PENV,26600,960.64917,1467.983,-1.00*39
$PIMU,26699,-1.24251,-1.34665,-9.18594,-1.17375,14.33522,23.62283*1F
$PIM2,26699,-0.8827,-0.0495, 0.1231, 0.4511*75
$PENV,26701,960.61841,1468.860,-1.00*3D
$PIMU,26799,-0.21905,-0.50035,-8.42464,1.86275,14.01478,2.39785*05
$PIM2,26799,-0.8875,-0.0547, 0.1107, 0.4441*7F
$PENV,26801,960.56567,1470.364,-1.00*39
$GNRMC,143557.00,A,3326.10627,N,09621.94967,W,111.643,100.97,190725,,,A,V*11
$GNVTG,100.97,T,,M,111.643,N,206.763,K,A*2A
$GNGGA,143557.00,3326.10627,N,09621.94967,W,1,12,0.56,503.2,M,-25.6,M,,*76
$PTH,26822*5C
$PFIX,26822,2025-07-19T14:35:57.000Z,33.4351045,-96.3658278,503.20,1,0.6,0.8,57.43,101.0*25
$GNGSA,A,3,06,15,13,12,21,20,11,25,29,05,,,1.08,0.56,0.92,1*0B
$GNGSA,A,3,72,65,88,71,86,87,79,,,,,,1.08,0.56,0.92,2*0C
$GNGSA,A,3,27,30,05,08,34,03,13,21,,,,,1.08,0.56,0.92,3*0C
$GNGSA,A,3,33,30,28,,,,,,,,,,1.08,0.56,0.92,4*0C
$GNGSA,A,3,,,,,,,,,,,,,1.08,0.56,0.92,5*04
$GQGSV,1,1,00,0*64
$GNGLL,3326.10627,N,09621.94967,W,143557.00,A,A*6B
$PTH,26951*59
$PFIX,26951,2025-07-19T14:35:57.000Z,33.4351045,-96.3658278,503.20,1,0.6,0.8,57.43,101.0*20
$PIMU,26969,-0.63322,-2.40362,-8.84599,6.86000,-0.46581,2.16897*1C
$PIM2,26969,-0.8919,-0.0688, 0.1066, 0.4344*71
$PENV,26970,960.39081,1475.353,-1.00*3B
$PIMU,27066,-0.67033,-1.85299,-9.18475,7.05074,4.90529,-3.36234*10
$PIM2,27066,-0.8912,-0.0746, 0.1069, 0.4348*7D
$PENV,27067,960.33038,1477.077,-1.00*3A
$PIMU,27166,-0.51831,-1.47952,-9.04230,2.54940,1.12874,0.52102*39
$PIM2,27166,-0.8906,-0.0782, 0.1072, 0.4353*71
$PENV,27167,960.20435,1480.672,-1.00*3B
$PIMU,27266,-0.32559,-1.36341,-9.00759,-0.30400,-0.91594,3.09213*32
$PIM2,27266,-0.8902,-0.0802, 0.1083, 0.4354*78
$PENV,27269,960.11938,1483.096,-1.00*3B
$PIMU,27366,-0.87143,-1.53219,-9.48639,2.41207,3.40993,0.31503*39
$PIM2,27366,-0.8904,-0.0808, 0.1084, 0.4348*7F
$PENV,27367,960.05353,1484.975,-1.00*35
$PIMU,27468,-0.37108,-2.33539,-9.60131,2.45021,2.27315,1.68832*35
$PIM2,27468,-0.8912,-0.0838, 0.1070, 0.4330*76
$PENV,27470,959.92419,1488.666,-1.00*38
$PIMU,27568,-0.27412,-1.80271,-10.37099,3.29708,0.89985,0.97878*0F
$PIM2,27568,-0.8909,-0.0862, 0.1067, 0.4333*77
$PENV,27570,959.85211,1490.722,-1.00*39
$PIMU,27668,-0.40579,-1.68780,-9.83353,-3.92796,2.98268,0.77279*1B
$PIM2,27668,-0.8915,-0.0868, 0.1050, 0.4324*71
$PENV,27669,959.79431,1492.372,-1.00*36
$PIMU,27768,0.29686,-1.75483,-8.91901,-7.86473,0.41920,5.93026*37
$PIM2,27768,-0.8930,-0.0842, 0.0997, 0.4310*7B
$PENV,27769,959.73474,1494.073,-1.00*38
$PIMU,27869,-0.19152,-1.44480,-9.67912,-9.07017,5.82081,10.98092*2B
